{"type":"FeatureCollection","features":[{"type":"Feature","properties":{"id":"2371","lineName":"1","name":"Nation","description":"Nation (terre-plein face au 3 place de la) - 75112","latitude":48.84811123157566,"longitude":2.3980040127977436},"geometry":{"coordinates":[48.84811123157566,2.3980040127977436],"type":"Point"}},{"type":"Feature","properties":{"id":"1832","lineName":"1","name":"Nation","description":"Nation (terre-plein face au 3 place de la) - 75112","latitude":48.84811123157566,"longitude":2.3980040127977436},"geometry":{"coordinates":[48.84811123157566,2.3980040127977436],"type":"Point"}},{"type":"Feature","properties":{"id":"2170","lineName":"1","name":"Concorde","description":"Tuileries (jardin des, le long du jardin et face È la place Concorde) PARIS-08 - 75108","latitude":48.86567809641779,"longitude":2.321193771801867},"geometry":{"coordinates":[48.86567809641779,2.321193771801867],"type":"Point"}},{"type":"Feature","properties":{"id":"2062","lineName":"1","name":"Bastille","description":"Roquette (rue de la) PARIS-11 - 75104","latitude":48.85297567465423,"longitude":2.3692188244433434},"geometry":{"coordinates":[48.85297567465423,2.3692188244433434],"type":"Point"}},{"type":"Feature","properties":{"id":"2331","lineName":"1","name":"Louvre-Rivoli","description":"Amiral de Coligny (8 rue de l') - 75101","latitude":48.86087985759375,"longitude":2.340973275817903},"geometry":{"coordinates":[48.86087985759375,2.340973275817903],"type":"Point"}},{"type":"Feature","properties":{"id":"2067","lineName":"1","name":"Bérault","description":"Paris (98 avenue de) - 94080","latitude":48.84536875015732,"longitude":2.428244509620486},"geometry":{"coordinates":[48.84536875015732,2.428244509620486],"type":"Point"}},{"type":"Feature","properties":{"id":"2544","lineName":"1","name":"Champs-Elysées-Clémenceau","description":"Clémenceau (place) - 75108","latitude":48.867744026068706,"longitude":2.3141227803741415},"geometry":{"coordinates":[48.867744026068706,2.3141227803741415],"type":"Point"}},{"type":"Feature","properties":{"id":"2443","lineName":"1","name":"Reuilly-Diderot","description":"Diderot (73 boulevard) - 75112","latitude":48.8473528769588,"longitude":2.3858425400402448},"geometry":{"coordinates":[48.8473528769588,2.3858425400402448],"type":"Point"}},{"type":"Feature","properties":{"id":"1961","lineName":"1","name":"George V","description":"Champs-Elysées (118 avenue des) - 75108","latitude":48.87204561942636,"longitude":2.3007691856449535},"geometry":{"coordinates":[48.87204561942636,2.3007691856449535],"type":"Point"}},{"type":"Feature","properties":{"id":"1864","lineName":"1","name":"Louvre-Rivoli","description":"Amiral de Coligny (8 rue de l') - 75101","latitude":48.86087985759375,"longitude":2.340973275817903},"geometry":{"coordinates":[48.86087985759375,2.340973275817903],"type":"Point"}},{"type":"Feature","properties":{"id":"2098","lineName":"1","name":"Argentine","description":"Grande Armée (36 avenue de la) - 75117","latitude":48.87567248598795,"longitude":2.289444164481448},"geometry":{"coordinates":[48.87567248598795,2.289444164481448],"type":"Point"}},{"type":"Feature","properties":{"id":"2200","lineName":"1","name":"Franklin-Roosevelt","description":"Montaigne (60 avenue) - 75108","latitude":48.869010427937624,"longitude":2.3102531808960265},"geometry":{"coordinates":[48.869010427937624,2.3102531808960265],"type":"Point"}},{"type":"Feature","properties":{"id":"2383","lineName":"1","name":"Palais-Royal (Musée du Louvre)","description":"Rivoli (terre-plein face au 93 rue de) - 75101","latitude":48.8623718215243,"longitude":2.3365736007364304},"geometry":{"coordinates":[48.8623718215243,2.3365736007364304],"type":"Point"}},{"type":"Feature","properties":{"id":"2342","lineName":"1","name":"Pont de Neuilly","description":"Charles de Gaulle (209 avenue) - 92051","latitude":48.88550610941816,"longitude":2.258527470197358},"geometry":{"coordinates":[48.88550610941816,2.258527470197358],"type":"Point"}},{"type":"Feature","properties":{"id":"1725","lineName":"1","name":"Saint-Mandé","description":"Paris (168 bis avenue de) - 94067","latitude":48.84623825662077,"longitude":2.418999828109256},"geometry":{"coordinates":[48.84623825662077,2.418999828109256],"type":"Point"}},{"type":"Feature","properties":{"id":"2154","lineName":"1","name":"Château de Vincennes","description":"Paris (14 avenue de) - 94080","latitude":48.84432514436857,"longitude":2.440552346211822},"geometry":{"coordinates":[48.84432514436857,2.440552346211822],"type":"Point"}},{"type":"Feature","properties":{"id":"1773","lineName":"1","name":"Palais-Royal (Musée du Louvre)","description":"Rivoli (terre-plein face au 93 rue de) - 75101","latitude":48.8623718215243,"longitude":2.3365736007364304},"geometry":{"coordinates":[48.8623718215243,2.3365736007364304],"type":"Point"}},{"type":"Feature","properties":{"id":"1933","lineName":"1","name":"Esplanade de la Défense","description":"Sculpteurs (voie des) - 92062","latitude":48.88835806016618,"longitude":2.249937212862802},"geometry":{"coordinates":[48.88835806016618,2.249937212862802],"type":"Point"}},{"type":"Feature","properties":{"id":"2155","lineName":"1","name":"Châtelet","description":"Victoria (7 avenue, 4 rue Saint-Martin) - 75101","latitude":48.85856967247972,"longitude":2.347933245835307},"geometry":{"coordinates":[48.85856967247972,2.347933245835307],"type":"Point"}},{"type":"Feature","properties":{"id":"2433","lineName":"1","name":"Porte Maillot","description":"Verdun (16 place de) - 75117","latitude":48.87800617627899,"longitude":2.2824656400013326},"geometry":{"coordinates":[48.87800617627899,2.2824656400013326],"type":"Point"}},{"type":"Feature","properties":{"id":"2470","lineName":"1","name":"Saint-Mandé","description":"Paris (168 bis avenue de) - 94067","latitude":48.84623825662077,"longitude":2.418999828109256},"geometry":{"coordinates":[48.84623825662077,2.418999828109256],"type":"Point"}},{"type":"Feature","properties":{"id":"2147","lineName":"1","name":"Charles de Gaulle-Etoile","description":"Charles de Gaulle (place, avenue Hoche) - 75108","latitude":48.8739310942679,"longitude":2.295127251650101},"geometry":{"coordinates":[48.8739310942679,2.295127251650101],"type":"Point"}},{"type":"Feature","properties":{"id":"1688","lineName":"1","name":"Tuileries","description":"Rivoli (210 rue de) - 75101","latitude":48.86478016250008,"longitude":2.3290949544294275},"geometry":{"coordinates":[48.86478016250008,2.3290949544294275],"type":"Point"}},{"type":"Feature","properties":{"id":"1856","lineName":"1","name":"Les Sablons (Jardin d'acclimatation)","description":"Charles de Gaulle (85 avenue) - 92051","latitude":48.88129918549113,"longitude":2.2719151760177914},"geometry":{"coordinates":[48.88129918549113,2.2719151760177914],"type":"Point"}},{"type":"Feature","properties":{"id":"2429","lineName":"1","name":"Porte de Vincennes","description":"Cours de Vincennes (99) - 75120","latitude":48.847016518419125,"longitude":2.410816882334764},"geometry":{"coordinates":[48.847016518419125,2.410816882334764],"type":"Point"}},{"type":"Feature","properties":{"id":"2210","lineName":"1","name":"Gare de Lyon","description":"Gare SNCF - 75112","latitude":48.84555978708341,"longitude":2.37344920496318},"geometry":{"coordinates":[48.84555978708341,2.37344920496318],"type":"Point"}},{"type":"Feature","properties":{"id":"2048","lineName":"1","name":"Argentine","description":"Grande Armée (36 avenue de la) - 75117","latitude":48.87567248598795,"longitude":2.289444164481448},"geometry":{"coordinates":[48.87567248598795,2.289444164481448],"type":"Point"}},{"type":"Feature","properties":{"id":"2258","lineName":"1","name":"Esplanade de la Défense","description":"Sculpteurs (voie des) - 92062","latitude":48.88835806016618,"longitude":2.249937212862802},"geometry":{"coordinates":[48.88835806016618,2.249937212862802],"type":"Point"}},{"type":"Feature","properties":{"id":"1642","lineName":"1","name":"Saint-Paul (Le Marais)","description":"Rivoli (terre plein face au 10 rue de) - 75104","latitude":48.85513451823504,"longitude":2.3613343390676635},"geometry":{"coordinates":[48.85513451823504,2.3613343390676635],"type":"Point"}},{"type":"Feature","properties":{"id":"2522","lineName":"1","name":"Saint-Paul (Le Marais)","description":"Rivoli (terre plein face au 10 rue de) - 75104","latitude":48.85513451823504,"longitude":2.3613343390676635},"geometry":{"coordinates":[48.85513451823504,2.3613343390676635],"type":"Point"}},{"type":"Feature","properties":{"id":"2216","lineName":"1","name":"George V","description":"Champs-Elysées (118 avenue des) - 75108","latitude":48.87204561942636,"longitude":2.3007691856449535},"geometry":{"coordinates":[48.87204561942636,2.3007691856449535],"type":"Point"}},{"type":"Feature","properties":{"id":"2111","lineName":"1","name":"Bastille","description":"Roquette (rue de la) PARIS-11 - 75104","latitude":48.85297567465423,"longitude":2.3692188244433434},"geometry":{"coordinates":[48.85297567465423,2.3692188244433434],"type":"Point"}},{"type":"Feature","properties":{"id":"2288","lineName":"1","name":"Hôtel de Ville","description":"Rivoli (70 rue de) - 75104","latitude":48.857355927169515,"longitude":2.3520735668587185},"geometry":{"coordinates":[48.857355927169515,2.3520735668587185],"type":"Point"}},{"type":"Feature","properties":{"id":"2116","lineName":"1","name":"Bérault","description":"Paris (98 avenue de) - 94080","latitude":48.84536875015732,"longitude":2.428244509620486},"geometry":{"coordinates":[48.84536875015732,2.428244509620486],"type":"Point"}},{"type":"Feature","properties":{"id":"1887","lineName":"1","name":"La Défense (Grande Arche)","description":"Carpeaux (rue, gare du RER La Défense) - 92062","latitude":48.891826754836515,"longitude":2.237992043215619},"geometry":{"coordinates":[48.891826754836515,2.237992043215619],"type":"Point"}},{"type":"Feature","properties":{"id":"1945","lineName":"1","name":"Franklin-Roosevelt","description":"Montaigne (60 avenue) - 75108","latitude":48.869010427937624,"longitude":2.3102531808960265},"geometry":{"coordinates":[48.869010427937624,2.3102531808960265],"type":"Point"}},{"type":"Feature","properties":{"id":"2283","lineName":"1","name":"La Défense (Grande Arche)","description":"Carpeaux (rue, gare du RER La Défense) - 92062","latitude":48.891826754836515,"longitude":2.237992043215619},"geometry":{"coordinates":[48.891826754836515,2.237992043215619],"type":"Point"}},{"type":"Feature","properties":{"id":"2323","lineName":"1","name":"Les Sablons (Jardin d'acclimatation)","description":"Charles de Gaulle (85 avenue) - 92051","latitude":48.88129918549113,"longitude":2.2719151760177914},"geometry":{"coordinates":[48.88129918549113,2.2719151760177914],"type":"Point"}},{"type":"Feature","properties":{"id":"1698","lineName":"1","name":"Reuilly-Diderot","description":"Diderot (73 boulevard) - 75112","latitude":48.8473528769588,"longitude":2.3858425400402448},"geometry":{"coordinates":[48.8473528769588,2.3858425400402448],"type":"Point"}},{"type":"Feature","properties":{"id":"1980","lineName":"1","name":"Concorde","description":"Tuileries (jardin des, le long du jardin et face È la place Concorde) PARIS-08 - 75108","latitude":48.86567809641779,"longitude":2.321193771801867},"geometry":{"coordinates":[48.86567809641779,2.321193771801867],"type":"Point"}},{"type":"Feature","properties":{"id":"2035","lineName":"1","name":"Château de Vincennes","description":"Paris (14 avenue de) - 94080","latitude":48.84432514436857,"longitude":2.440552346211822},"geometry":{"coordinates":[48.84432514436857,2.440552346211822],"type":"Point"}},{"type":"Feature","properties":{"id":"2036","lineName":"1","name":"Châtelet","description":"Victoria (7 avenue, 4 rue Saint-Martin) - 75101","latitude":48.85856967247972,"longitude":2.347933245835307},"geometry":{"coordinates":[48.85856967247972,2.347933245835307],"type":"Point"}},{"type":"Feature","properties":{"id":"1755","lineName":"1","name":"Porte Maillot","description":"Verdun (16 place de) - 75117","latitude":48.87800617627899,"longitude":2.2824656400013326},"geometry":{"coordinates":[48.87800617627899,2.2824656400013326],"type":"Point"}},{"type":"Feature","properties":{"id":"1751","lineName":"1","name":"Porte de Vincennes","description":"Cours de Vincennes (99) - 75120","latitude":48.847016518419125,"longitude":2.410816882334764},"geometry":{"coordinates":[48.847016518419125,2.410816882334764],"type":"Point"}},{"type":"Feature","properties":{"id":"1803","lineName":"1","name":"Pont de Neuilly","description":"Charles de Gaulle (209 avenue) - 92051","latitude":48.88550610941816,"longitude":2.258527470197358},"geometry":{"coordinates":[48.88550610941816,2.258527470197358],"type":"Point"}},{"type":"Feature","properties":{"id":"1892","lineName":"1","name":"Hôtel de Ville","description":"Rivoli (70 rue de) - 75104","latitude":48.857355927169515,"longitude":2.3520735668587185},"geometry":{"coordinates":[48.857355927169515,2.3520735668587185],"type":"Point"}},{"type":"Feature","properties":{"id":"2028","lineName":"1","name":"Charles de Gaulle-Etoile","description":"Charles de Gaulle (place, avenue Hoche) - 75108","latitude":48.8739310942679,"longitude":2.295127251650101},"geometry":{"coordinates":[48.8739310942679,2.295127251650101],"type":"Point"}},{"type":"Feature","properties":{"id":"2498","lineName":"1","name":"Tuileries","description":"Rivoli (210 rue de) - 75101","latitude":48.86478016250008,"longitude":2.3290949544294275},"geometry":{"coordinates":[48.86478016250008,2.3290949544294275],"type":"Point"}},{"type":"Feature","properties":{"id":"2083","lineName":"1","name":"Champs-Elysées-Clémenceau","description":"Clémenceau (place) - 75108","latitude":48.867744026068706,"longitude":2.3141227803741415},"geometry":{"coordinates":[48.867744026068706,2.3141227803741415],"type":"Point"}},{"type":"Feature","properties":{"id":"1955","lineName":"1","name":"Gare de Lyon","description":"Gare SNCF - 75112","latitude":48.84555978708341,"longitude":2.37344920496318},"geometry":{"coordinates":[48.84555978708341,2.37344920496318],"type":"Point"}},{"type":"Feature","properties":{"id":"2541","lineName":"10","name":"Ségur","description":"Suffren (156 avenue de) - 75115","latitude":48.84686470206919,"longitude":2.307268847578926},"geometry":{"coordinates":[48.84686470206919,2.307268847578926],"type":"Point"}},{"type":"Feature","properties":{"id":"2350","lineName":"10","name":"Maubert-Mutualité","description":"Saint-Germain (62 boulevard) - 75105","latitude":48.849716940163574,"longitude":2.348925558491872},"geometry":{"coordinates":[48.849716940163574,2.348925558491872],"type":"Point"}},{"type":"Feature","properties":{"id":"1666","lineName":"10","name":"Sèvres-Babylone","description":"Velpeau (rue, face au Bon Marché) - 75107","latitude":48.85093928843075,"longitude":2.3261146548222844},"geometry":{"coordinates":[48.85093928843075,2.3261146548222844],"type":"Point"}},{"type":"Feature","properties":{"id":"2354","lineName":"10","name":"Michel-Ange-Auteuil","description":"Auteuil (55 rue d', angle avec le 1 rue Michel-Ange) - 75116","latitude":48.847933946139044,"longitude":2.2648350771736747},"geometry":{"coordinates":[48.847933946139044,2.2648350771736747],"type":"Point"}},{"type":"Feature","properties":{"id":"2500","lineName":"10","name":"Vaneau","description":"Sèvres (97 rue de) - 75107","latitude":48.84870084962003,"longitude":2.321239881938573},"geometry":{"coordinates":[48.84870084962003,2.321239881938573],"type":"Point"}},{"type":"Feature","properties":{"id":"2334","lineName":"10","name":"Mabillon","description":"Four (13 rue du) - 75106","latitude":48.85284513365445,"longitude":2.335143718516068},"geometry":{"coordinates":[48.85284513365445,2.335143718516068],"type":"Point"}},{"type":"Feature","properties":{"id":"2256","lineName":"10","name":"Eglise d'Auteuil","description":"Wilhem (20 rue) - 75116","latitude":48.847883216579156,"longitude":2.270295892634314},"geometry":{"coordinates":[48.847883216579156,2.270295892634314],"type":"Point"}},{"type":"Feature","properties":{"id":"1661","lineName":"10","name":"Ségur","description":"Suffren (156 avenue de) - 75115","latitude":48.84686470206919,"longitude":2.307268847578926},"geometry":{"coordinates":[48.84686470206919,2.307268847578926],"type":"Point"}},{"type":"Feature","properties":{"id":"1903","lineName":"10","name":"Javel-André-Citroen","description":"Emile Zola (2 avenue, 1 rue Emile Zola) - 75115","latitude":48.84596388048408,"longitude":2.2778151263537714},"geometry":{"coordinates":[48.84596388048408,2.2778151263537714],"type":"Point"}},{"type":"Feature","properties":{"id":"1811","lineName":"10","name":"Maubert-Mutualité","description":"Saint-Germain (62 boulevard) - 75105","latitude":48.849716940163574,"longitude":2.348925558491872},"geometry":{"coordinates":[48.849716940163574,2.348925558491872],"type":"Point"}},{"type":"Feature","properties":{"id":"2193","lineName":"10","name":"Boulogne-Jean-Jaurès","description":"Jean Jaurès (23 boulevard) - 92012","latitude":48.84228014352973,"longitude":2.238862975367271},"geometry":{"coordinates":[48.84228014352973,2.238862975367271],"type":"Point"}},{"type":"Feature","properties":{"id":"2252","lineName":"10","name":"Duroc","description":"Sèvres (88 rue de) - 75107","latitude":48.846848768895974,"longitude":2.3169373108340854},"geometry":{"coordinates":[48.846848768895974,2.3169373108340854],"type":"Point"}},{"type":"Feature","properties":{"id":"2233","lineName":"10","name":"Jussieu","description":"Liné (39 rue) - 75105","latitude":48.84576175731147,"longitude":2.354548594906739},"geometry":{"coordinates":[48.84576175731147,2.354548594906739],"type":"Point"}},{"type":"Feature","properties":{"id":"1908","lineName":"10","name":"Jussieu","description":"Liné (39 rue) - 75105","latitude":48.84576175731147,"longitude":2.354548594906739},"geometry":{"coordinates":[48.84576175731147,2.354548594906739],"type":"Point"}},{"type":"Feature","properties":{"id":"1927","lineName":"10","name":"Duroc","description":"Sèvres (88 rue de) - 75107","latitude":48.846848768895974,"longitude":2.3169373108340854},"geometry":{"coordinates":[48.846848768895974,2.3169373108340854],"type":"Point"}},{"type":"Feature","properties":{"id":"2167","lineName":"10","name":"Cluny-La Sorbonne","description":"100 Boulevard Saint-Germain - 75105","latitude":48.85079575570429,"longitude":2.3450308883652258},"geometry":{"coordinates":[48.85079575570429,2.3450308883652258],"type":"Point"}},{"type":"Feature","properties":{"id":"1818","lineName":"10","name":"Mirabeau","description":"Versailles (63 avenue de) - 75116","latitude":48.847084858904864,"longitude":2.273074914922012},"geometry":{"coordinates":[48.847084858904864,2.273074914922012],"type":"Point"}},{"type":"Feature","properties":{"id":"8433","lineName":"10","name":"Porte d'Auteuil","description":"Murat (5 boulevard) - 75116","latitude":48.84822598041119,"longitude":2.257698885660922},"geometry":{"coordinates":[48.84822598041119,2.257698885660922],"type":"Point"}},{"type":"Feature","properties":{"id":"1817","lineName":"10","name":"Michel-Ange-Molitor","description":"Molitor (34 rue, angle avec le 37 rue Michel-Ange) - 75116","latitude":48.84498448667992,"longitude":2.26232003903747},"geometry":{"coordinates":[48.84498448667992,2.26232003903747],"type":"Point"}},{"type":"Feature","properties":{"id":"2018","lineName":"10","name":"Cardinal-Lemoine","description":"Monge (28 rue) - 75105","latitude":48.84670586906026,"longitude":2.351335178972595},"geometry":{"coordinates":[48.84670586906026,2.351335178972595],"type":"Point"}},{"type":"Feature","properties":{"id":"1867","lineName":"10","name":"Mabillon","description":"Four (13 rue du) - 75106","latitude":48.85284513365445,"longitude":2.335143718516068},"geometry":{"coordinates":[48.85284513365445,2.335143718516068],"type":"Point"}},{"type":"Feature","properties":{"id":"2137","lineName":"10","name":"Cardinal-Lemoine","description":"Monge (28 rue) - 75105","latitude":48.84670586906026,"longitude":2.351335178972595},"geometry":{"coordinates":[48.84670586906026,2.351335178972595],"type":"Point"}},{"type":"Feature","properties":{"id":"2346","lineName":"10","name":"Porte d'Auteuil","description":"Murat (5 boulevard) - 75116","latitude":48.84822598041119,"longitude":2.257698885660922},"geometry":{"coordinates":[48.84822598041119,2.257698885660922],"type":"Point"}},{"type":"Feature","properties":{"id":"1916","lineName":"10","name":"La Motte-Picquet-Grenelle","description":"Pondichéry (25 rue de) - 75115","latitude":48.84882126668606,"longitude":2.2979529640251917},"geometry":{"coordinates":[48.84882126668606,2.2979529640251917],"type":"Point"}},{"type":"Feature","properties":{"id":"1653","lineName":"10","name":"Odéon","description":"Saint-Germain (93 boulevard, rue de l'Ecole de Médecine) - 75106","latitude":48.85231488119486,"longitude":2.338861720336335},"geometry":{"coordinates":[48.85231488119486,2.338861720336335],"type":"Point"}},{"type":"Feature","properties":{"id":"2241","lineName":"10","name":"La Motte-Picquet-Grenelle","description":"Pondichéry (25 rue de) - 75115","latitude":48.84882126668606,"longitude":2.2979529640251917},"geometry":{"coordinates":[48.84882126668606,2.2979529640251917],"type":"Point"}},{"type":"Feature","properties":{"id":"1690","lineName":"10","name":"Vaneau","description":"Sèvres (97 rue de) - 75107","latitude":48.84870084962003,"longitude":2.321239881938573},"geometry":{"coordinates":[48.84870084962003,2.321239881938573],"type":"Point"}},{"type":"Feature","properties":{"id":"2533","lineName":"10","name":"Odéon","description":"Saint-Germain (93 boulevard, rue de l'Ecole de Médecine) - 75106","latitude":48.85231488119486,"longitude":2.338861720336335},"geometry":{"coordinates":[48.85231488119486,2.338861720336335],"type":"Point"}},{"type":"Feature","properties":{"id":"2207","lineName":"10","name":"Gare d'Austerlitz","description":"SNCF/RER C grandes lignes et banlieue - 75113","latitude":48.84371986136062,"longitude":2.3639162171627124},"geometry":{"coordinates":[48.84371986136062,2.3639162171627124],"type":"Point"}},{"type":"Feature","properties":{"id":"2057","lineName":"10","name":"Avenue Emile-Zola","description":"Emile Zola (154 avenue) - 75115","latitude":48.846852151949776,"longitude":2.2954488279344742},"geometry":{"coordinates":[48.846852151949776,2.2954488279344742],"type":"Point"}},{"type":"Feature","properties":{"id":"2031","lineName":"10","name":"Charles Michels","description":"Entrepreneurs (36 rue des) - 75115","latitude":48.8463629755008,"longitude":2.2856310658828742},"geometry":{"coordinates":[48.8463629755008,2.2856310658828742],"type":"Point"}},{"type":"Feature","properties":{"id":"2005","lineName":"10","name":"Boulogne Pont de Saint-Cloud","description":"Reine (135 route de la) - 92012","latitude":48.84068016312195,"longitude":2.228313661724341},"geometry":{"coordinates":[48.84068016312195,2.228313661724341],"type":"Point"}},{"type":"Feature","properties":{"id":"2004","lineName":"10","name":"Boulogne-Jean-Jaurès","description":"Jean Jaurès (23 boulevard) - 92012","latitude":48.84228014352973,"longitude":2.238862975367271},"geometry":{"coordinates":[48.84228014352973,2.238862975367271],"type":"Point"}},{"type":"Feature","properties":{"id":"2150","lineName":"10","name":"Charles Michels","description":"Entrepreneurs (36 rue des) - 75115","latitude":48.8463629755008,"longitude":2.2856310658828742},"geometry":{"coordinates":[48.8463629755008,2.2856310658828742],"type":"Point"}},{"type":"Feature","properties":{"id":"2026","lineName":"10","name":"Chardon-Lagache","description":"Chardon Lagache (11 rue) - 75116","latitude":48.845104139567006,"longitude":2.266936059032254},"geometry":{"coordinates":[48.845104139567006,2.266936059032254],"type":"Point"}},{"type":"Feature","properties":{"id":"2106","lineName":"10","name":"Avenue Emile-Zola","description":"Emile Zola (154 avenue) - 75115","latitude":48.846852151949776,"longitude":2.2954488279344742},"geometry":{"coordinates":[48.846852151949776,2.2954488279344742],"type":"Point"}},{"type":"Feature","properties":{"id":"1977","lineName":"10","name":"Cluny-La Sorbonne","description":"100 Boulevard Saint-Germain - 75105","latitude":48.85079575570429,"longitude":2.3450308883652258},"geometry":{"coordinates":[48.85079575570429,2.3450308883652258],"type":"Point"}},{"type":"Feature","properties":{"id":"1952","lineName":"10","name":"Gare d'Austerlitz","description":"SNCF/RER C grandes lignes et banlieue - 75113","latitude":48.84371986136062,"longitude":2.3639162171627124},"geometry":{"coordinates":[48.84371986136062,2.3639162171627124],"type":"Point"}},{"type":"Feature","properties":{"id":"2194","lineName":"10","name":"Boulogne Pont de Saint-Cloud","description":"Reine (135 route de la) - 92012","latitude":48.84068016312195,"longitude":2.228313661724341},"geometry":{"coordinates":[48.84068016312195,2.228313661724341],"type":"Point"}},{"type":"Feature","properties":{"id":"2476","lineName":"10","name":"Sèvres-Babylone","description":"Velpeau (rue, face au Bon Marché) - 75107","latitude":48.85093928843075,"longitude":2.3261146548222844},"geometry":{"coordinates":[48.85093928843075,2.3261146548222844],"type":"Point"}},{"type":"Feature","properties":{"id":"2299","lineName":"10","name":"Javel-André-Citroen","description":"Emile Zola (2 avenue, 1 rue Emile Zola) - 75115","latitude":48.84596388048408,"longitude":2.2778151263537714},"geometry":{"coordinates":[48.84596388048408,2.2778151263537714],"type":"Point"}},{"type":"Feature","properties":{"id":"1905","lineName":"11","name":"Jourdain","description":"Palestine (2 rue de) - 75120","latitude":48.87524829462498,"longitude":2.389329434152641},"geometry":{"coordinates":[48.87524829462498,2.389329434152641],"type":"Point"}},{"type":"Feature","properties":{"id":"2218","lineName":"11","name":"Goncourt (Hôpital Saint-Louis)","description":"Parmentier (152 avenue) - 75110","latitude":48.87001535524704,"longitude":2.3707687990214654},"geometry":{"coordinates":[48.87001535524704,2.3707687990214654],"type":"Point"}},{"type":"Feature","properties":{"id":"2066","lineName":"11","name":"Belleville","description":"Villette (terre-plein face au 1 boulevard de la) - 75119","latitude":48.87194579797485,"longitude":2.3767510413738},"geometry":{"coordinates":[48.87194579797485,2.3767510413738],"type":"Point"}},{"type":"Feature","properties":{"id":"1682","lineName":"11","name":"Telegraphe","description":"Belleville (rue de) - 75120","latitude":48.87552244924565,"longitude":2.3986765111449513},"geometry":{"coordinates":[48.87552244924565,2.3986765111449513],"type":"Point"}},{"type":"Feature","properties":{"id":"967988","lineName":"11","name":"République","description":"Voltaire (1 boulevard, en face) - 75111","latitude":48.867240185361254,"longitude":2.3630564459452406},"geometry":{"coordinates":[48.867240185361254,2.3630564459452406],"type":"Point"}},{"type":"Feature","properties":{"id":"967989","lineName":"11","name":"République","description":"Voltaire (1 boulevard, en face) - 75111","latitude":48.867240185361254,"longitude":2.3630564459452406},"geometry":{"coordinates":[48.867240185361254,2.3630564459452406],"type":"Point"}},{"type":"Feature","properties":{"id":"1965","lineName":"11","name":"Châtelet","description":"Victoria (7 avenue, 4 rue Saint-Martin) - 75101","latitude":48.858857284381365,"longitude":2.347769856742684},"geometry":{"coordinates":[48.858857284381365,2.347769856742684],"type":"Point"}},{"type":"Feature","properties":{"id":"2289","lineName":"11","name":"Hôtel de Ville","description":"Rivoli (70 rue de) - 75104","latitude":48.85780537313629,"longitude":2.351460776513565},"geometry":{"coordinates":[48.85780537313629,2.351460776513565],"type":"Point"}},{"type":"Feature","properties":{"id":"2115","lineName":"11","name":"Belleville","description":"Villette (terre-plein face au 1 boulevard de la) - 75119","latitude":48.87194579797485,"longitude":2.3767510413738},"geometry":{"coordinates":[48.87194579797485,2.3767510413738],"type":"Point"}},{"type":"Feature","properties":{"id":"2408","lineName":"11","name":"Place des Fêtes","description":"Fêtes (place des, rue Compans) - 75119","latitude":48.87672946890669,"longitude":2.393146031767842},"geometry":{"coordinates":[48.87672946890669,2.393146031767842],"type":"Point"}},{"type":"Feature","properties":{"id":"1761","lineName":"11","name":"Rambuteau","description":"Grenier Saint-Lazare (3 rue) - 75104","latitude":48.86119339564163,"longitude":2.3532869598707133},"geometry":{"coordinates":[48.86119339564163,2.3532869598707133],"type":"Point"}},{"type":"Feature","properties":{"id":"1963","lineName":"11","name":"Goncourt (Hôpital Saint-Louis)","description":"Parmentier (152 avenue) - 75110","latitude":48.87001535524704,"longitude":2.3707687990214654},"geometry":{"coordinates":[48.87001535524704,2.3707687990214654],"type":"Point"}},{"type":"Feature","properties":{"id":"2220","lineName":"11","name":"Châtelet","description":"Victoria (7 avenue, 4 rue Saint-Martin) - 75101","latitude":48.858857284381365,"longitude":2.347769856742684},"geometry":{"coordinates":[48.858857284381365,2.347769856742684],"type":"Point"}},{"type":"Feature","properties":{"id":"2051","lineName":"11","name":"Arts-et-Métiers","description":"Vertus (rue des) - 75103","latitude":48.86538117604685,"longitude":2.3556449312068772},"geometry":{"coordinates":[48.86538117604685,2.3556449312068772],"type":"Point"}},{"type":"Feature","properties":{"id":"2266","lineName":"11","name":"Jourdain","description":"Palestine (2 rue de) - 75120","latitude":48.87524829462498,"longitude":2.389329434152641},"geometry":{"coordinates":[48.87524829462498,2.389329434152641],"type":"Point"}},{"type":"Feature","properties":{"id":"1758","lineName":"11","name":"Pyrenees","description":"Simon Bolivar (4 avenue) - 75120","latitude":48.87382117233675,"longitude":2.384886372197903},"geometry":{"coordinates":[48.87382117233675,2.384886372197903],"type":"Point"}},{"type":"Feature","properties":{"id":"2431","lineName":"11","name":"Porte des Lilas","description":"Sérurier (Boulevard) - 75120","latitude":48.87723471669558,"longitude":2.4065268430480917},"geometry":{"coordinates":[48.87723471669558,2.4065268430480917],"type":"Point"}},{"type":"Feature","properties":{"id":"1753","lineName":"11","name":"Porte des Lilas","description":"Sérurier (Boulevard) - 75120","latitude":48.87723471669558,"longitude":2.4065268430480917},"geometry":{"coordinates":[48.87723471669558,2.4065268430480917],"type":"Point"}},{"type":"Feature","properties":{"id":"1893","lineName":"11","name":"Hôtel de Ville","description":"Rivoli (70 rue de) - 75104","latitude":48.85780537313629,"longitude":2.351460776513565},"geometry":{"coordinates":[48.85780537313629,2.351460776513565],"type":"Point"}},{"type":"Feature","properties":{"id":"2436","lineName":"11","name":"Pyrenees","description":"Simon Bolivar (4 avenue) - 75120","latitude":48.87382117233675,"longitude":2.384886372197903},"geometry":{"coordinates":[48.87382117233675,2.384886372197903],"type":"Point"}},{"type":"Feature","properties":{"id":"2100","lineName":"11","name":"Arts-et-Métiers","description":"Vertus (rue des) - 75103","latitude":48.86538117604685,"longitude":2.3556449312068772},"geometry":{"coordinates":[48.86538117604685,2.3556449312068772],"type":"Point"}},{"type":"Feature","properties":{"id":"2271","lineName":"11","name":"Mairie des Lilas","description":"Liberté (2 boulevard de la) - 93045","latitude":48.880051061772676,"longitude":2.415660206064229},"geometry":{"coordinates":[48.880051061772676,2.415660206064229],"type":"Point"}},{"type":"Feature","properties":{"id":"2439","lineName":"11","name":"Rambuteau","description":"Grenier Saint-Lazare (3 rue) - 75104","latitude":48.86119339564163,"longitude":2.3532869598707133},"geometry":{"coordinates":[48.86119339564163,2.3532869598707133],"type":"Point"}},{"type":"Feature","properties":{"id":"1798","lineName":"11","name":"Place des Fêtes","description":"Fêtes (place des, rue Compans) - 75119","latitude":48.87672946890669,"longitude":2.393146031767842},"geometry":{"coordinates":[48.87672946890669,2.393146031767842],"type":"Point"}},{"type":"Feature","properties":{"id":"1875","lineName":"11","name":"Mairie des Lilas","description":"Liberté (2 boulevard de la) - 93045","latitude":48.880051061772676,"longitude":2.415660206064229},"geometry":{"coordinates":[48.880051061772676,2.415660206064229],"type":"Point"}},{"type":"Feature","properties":{"id":"2492","lineName":"11","name":"Telegraphe","description":"Belleville (rue de) - 75120","latitude":48.87552244924565,"longitude":2.3986765111449513},"geometry":{"coordinates":[48.87552244924565,2.3986765111449513],"type":"Point"}},{"type":"Feature","properties":{"id":"2402","lineName":"12","name":"Pigalle","description":"Clichy (26 boulevard de) - 75118","latitude":48.88202708962622,"longitude":2.337213801747862},"geometry":{"coordinates":[48.88202708962622,2.337213801747862],"type":"Point"}},{"type":"Feature","properties":{"id":"1669","lineName":"12","name":"Solférino","description":"Saint-Germain (223 boulevard) - 75107","latitude":48.858533359508236,"longitude":2.323089248787209},"geometry":{"coordinates":[48.858533359508236,2.323089248787209],"type":"Point"}},{"type":"Feature","properties":{"id":"1667","lineName":"12","name":"Sèvres-Babylone","description":"Velpeau (rue, face au Bon Marché) - 75107","latitude":48.85157746899621,"longitude":2.3268907883428853},"geometry":{"coordinates":[48.85157746899621,2.3268907883428853],"type":"Point"}},{"type":"Feature","properties":{"id":"2336","lineName":"12","name":"Madeleine","description":"Tronchet (2 rue, 3 rue Tronchet) - 75108","latitude":48.8697947152178,"longitude":2.3246120120222655},"geometry":{"coordinates":[48.8697947152178,2.3246120120222655],"type":"Point"}},{"type":"Feature","properties":{"id":"2337","lineName":"12","name":"Mairie d'Issy","description":"Général Leclerc (rue du) - 92040","latitude":48.82434652601842,"longitude":2.2735658296006465},"geometry":{"coordinates":[48.82434652601842,2.2735658296006465],"type":"Point"}},{"type":"Feature","properties":{"id":"2501","lineName":"12","name":"Vaugirard (Adolphe Chérioux)","description":"Vergenne (square de, vers la rue des Favorites) - 75115","latitude":48.83943928123955,"longitude":2.3010780424739252},"geometry":{"coordinates":[48.83943928123955,2.3010780424739252],"type":"Point"}},{"type":"Feature","properties":{"id":"2392","lineName":"12","name":"Pasteur","description":"Vaugirard (183 rue de) - 75115","latitude":48.8428305421094,"longitude":2.3126633077591134},"geometry":{"coordinates":[48.8428305421094,2.3126633077591134],"type":"Point"}},{"type":"Feature","properties":{"id":"1869","lineName":"12","name":"Madeleine","description":"Tronchet (2 rue, 3 rue Tronchet) - 75108","latitude":48.8697947152178,"longitude":2.3246120120222655},"geometry":{"coordinates":[48.8697947152178,2.3246120120222655],"type":"Point"}},{"type":"Feature","properties":{"id":"1920","lineName":"12","name":"Lamarck-Caulaincourt","description":"Lamarck (53/53 bis rue) - 75118","latitude":48.8897381077178,"longitude":2.339149086674118},"geometry":{"coordinates":[48.8897381077178,2.339149086674118],"type":"Point"}},{"type":"Feature","properties":{"id":"2309","lineName":"12","name":"Notre-Dame des Champs","description":"Raspail (terre-plein face au 112 boulevard, 123 bd Raspail/35 r. N-D des Champs) - 75106","latitude":48.84478304833005,"longitude":2.3284444832927207},"geometry":{"coordinates":[48.84478304833005,2.3284444832927207],"type":"Point"}},{"type":"Feature","properties":{"id":"1723","lineName":"12","name":"Saint-Lazare","description":"Saint-Lazare (97 rue) - 75108","latitude":48.875420977789275,"longitude":2.3266952720717047},"geometry":{"coordinates":[48.875420977789275,2.3266952720717047],"type":"Point"}},{"type":"Feature","properties":{"id":"2052","lineName":"12","name":"Assemblée Nationale","description":"Saint-Germain (233 boulevard, angle avec la rue de l'Université) - 75107","latitude":48.86145390429487,"longitude":2.3203096905073557},"geometry":{"coordinates":[48.86145390429487,2.3203096905073557],"type":"Point"}},{"type":"Feature","properties":{"id":"1938","lineName":"12","name":"Falguière","description":"Cherche-Midi (138 rue du) - 75115","latitude":48.84432338300201,"longitude":2.317564676180599},"geometry":{"coordinates":[48.84432338300201,2.317564676180599],"type":"Point"}},{"type":"Feature","properties":{"id":"1632","lineName":"12","name":"Volontaires","description":"Volontaires (25 rue des) - 75115","latitude":48.84141844267774,"longitude":2.307993649386661},"geometry":{"coordinates":[48.84141844267774,2.307993649386661],"type":"Point"}},{"type":"Feature","properties":{"id":"2245","lineName":"12","name":"Lamarck-Caulaincourt","description":"Lamarck (53/53 bis rue) - 75118","latitude":48.8897381077178,"longitude":2.339149086674118},"geometry":{"coordinates":[48.8897381077178,2.339149086674118],"type":"Point"}},{"type":"Feature","properties":{"id":"1720","lineName":"12","name":"Saint-Georges","description":"Saint-Georges (place, côté pair) - 75109","latitude":48.878593955236205,"longitude":2.3378269689170192},"geometry":{"coordinates":[48.878593955236205,2.3378269689170192],"type":"Point"}},{"type":"Feature","properties":{"id":"2479","lineName":"12","name":"Solférino","description":"Saint-Germain (223 boulevard) - 75107","latitude":48.858533359508236,"longitude":2.323089248787209},"geometry":{"coordinates":[48.858533359508236,2.323089248787209],"type":"Point"}},{"type":"Feature","properties":{"id":"1870","lineName":"12","name":"Mairie d'Issy","description":"Général Leclerc (rue du) - 92040","latitude":48.82434652601842,"longitude":2.2735658296006465},"geometry":{"coordinates":[48.82434652601842,2.2735658296006465],"type":"Point"}},{"type":"Feature","properties":{"id":"2156","lineName":"12","name":"Abbesses","description":"Abbesses (place des, face au 2 rue de la Vieuville) - 75118","latitude":48.8843997149084,"longitude":2.338399384171042},"geometry":{"coordinates":[48.8843997149084,2.338399384171042],"type":"Point"}},{"type":"Feature","properties":{"id":"2477","lineName":"12","name":"Sèvres-Babylone","description":"Velpeau (rue, face au Bon Marché) - 75107","latitude":48.85157746899621,"longitude":2.3268907883428853},"geometry":{"coordinates":[48.85157746899621,2.3268907883428853],"type":"Point"}},{"type":"Feature","properties":{"id":"2308","lineName":"12","name":"Notre-Dame de Lorette","description":"Bourdaloué (1 rue, en face) - 75109","latitude":48.876050554237366,"longitude":2.337908692037609},"geometry":{"coordinates":[48.876050554237366,2.337908692037609],"type":"Point"}},{"type":"Feature","properties":{"id":"1826","lineName":"12","name":"Montparnasse-Bienvenue","description":"Raoul Dautry (place, SNCF Montparnasse) - 75114","latitude":48.844027636151914,"longitude":2.323569797217576},"geometry":{"coordinates":[48.844027636151914,2.323569797217576],"type":"Point"}},{"type":"Feature","properties":{"id":"2101","lineName":"12","name":"Assemblée Nationale","description":"Saint-Germain (233 boulevard, angle avec la rue de l'Université) - 75107","latitude":48.86145390429487,"longitude":2.3203096905073557},"geometry":{"coordinates":[48.86145390429487,2.3203096905073557],"type":"Point"}},{"type":"Feature","properties":{"id":"3901292","lineName":"12","name":"Front Populaire","description":"Place du Front Populaire, côté rue Waldeck Rochet face à la rue des Gardinoux - 93001","latitude":48.90666658787472,"longitude":2.3652301358543797},"geometry":{"coordinates":[48.90666658787472,2.3652301358543797],"type":"Point"}},{"type":"Feature","properties":{"id":"3901291","lineName":"12","name":"Front Populaire","description":"Place du Front Populaire, côté rue Waldeck Rochet face à la rue des Gardinoux - 93001","latitude":48.90666658787472,"longitude":2.3652301358543797},"geometry":{"coordinates":[48.90666658787472,2.3652301358543797],"type":"Point"}},{"type":"Feature","properties":{"id":"2428","lineName":"12","name":"Porte de Versailles","description":"Victor (73 boulevard) - 75115","latitude":48.832253452749,"longitude":2.287864137819189},"geometry":{"coordinates":[48.832253452749,2.287864137819189],"type":"Point"}},{"type":"Feature","properties":{"id":"1686","lineName":"12","name":"Trinité-d'Estienne d'Orves","description":"Estienne d'Orves (2 place d') - 75109","latitude":48.8763290374387,"longitude":2.331804568510596},"geometry":{"coordinates":[48.8763290374387,2.331804568510596],"type":"Point"}},{"type":"Feature","properties":{"id":"1710","lineName":"12","name":"Rue du Bac","description":"Raspail (terre-plein face au 2 boulevard) - 75107","latitude":48.85589133781551,"longitude":2.325704993899314},"geometry":{"coordinates":[48.85589133781551,2.325704993899314],"type":"Point"}},{"type":"Feature","properties":{"id":"2421","lineName":"12","name":"Porte de la Chapelle","description":"Chapelle (93 rue de la) - 75118","latitude":48.89795934324147,"longitude":2.3592550695796524},"geometry":{"coordinates":[48.89795934324147,2.3592550695796524],"type":"Point"}},{"type":"Feature","properties":{"id":"1906","lineName":"12","name":"Jules Joffrin","description":"Ordener (115 rue) - 75118","latitude":48.89249697693026,"longitude":2.3443284105515048},"geometry":{"coordinates":[48.89249697693026,2.3443284105515048],"type":"Point"}},{"type":"Feature","properties":{"id":"1646","lineName":"12","name":"Rennes","description":"Rennes (115 rue de) - 75106","latitude":48.848198268824774,"longitude":2.3280217486281134},"geometry":{"coordinates":[48.848198268824774,2.3280217486281134],"type":"Point"}},{"type":"Feature","properties":{"id":"2526","lineName":"12","name":"Rennes","description":"Rennes (115 rue de) - 75106","latitude":48.848198268824774,"longitude":2.3280217486281134},"geometry":{"coordinates":[48.848198268824774,2.3280217486281134],"type":"Point"}},{"type":"Feature","properties":{"id":"1782","lineName":"12","name":"Pasteur","description":"Vaugirard (183 rue de) - 75115","latitude":48.8428305421094,"longitude":2.3126633077591134},"geometry":{"coordinates":[48.8428305421094,2.3126633077591134],"type":"Point"}},{"type":"Feature","properties":{"id":"2465","lineName":"12","name":"Saint-Georges","description":"Saint-Georges (place, côté pair) - 75109","latitude":48.878593955236205,"longitude":2.3378269689170192},"geometry":{"coordinates":[48.878593955236205,2.3378269689170192],"type":"Point"}},{"type":"Feature","properties":{"id":"1743","lineName":"12","name":"Porte de la Chapelle","description":"Chapelle (93 rue de la) - 75118","latitude":48.89795934324147,"longitude":2.3592550695796524},"geometry":{"coordinates":[48.89795934324147,2.3592550695796524],"type":"Point"}},{"type":"Feature","properties":{"id":"1886","lineName":"12","name":"Marx-Dormoy","description":"Chapelle (4 rue de la) - 75118","latitude":48.890374081221125,"longitude":2.3597970086706117},"geometry":{"coordinates":[48.890374081221125,2.3597970086706117],"type":"Point"}},{"type":"Feature","properties":{"id":"1883","lineName":"12","name":"Marcadet-Poissonniers","description":"Poissonniers (69 rue des) - 75118","latitude":48.89160682271851,"longitude":2.349548310988923},"geometry":{"coordinates":[48.89160682271851,2.349548310988923],"type":"Point"}},{"type":"Feature","properties":{"id":"2282","lineName":"12","name":"Marx-Dormoy","description":"Chapelle (4 rue de la) - 75118","latitude":48.890374081221125,"longitude":2.3597970086706117},"geometry":{"coordinates":[48.890374081221125,2.3597970086706117],"type":"Point"}},{"type":"Feature","properties":{"id":"2468","lineName":"12","name":"Saint-Lazare","description":"Saint-Lazare (97 rue) - 75108","latitude":48.875420977789275,"longitude":2.3266952720717047},"geometry":{"coordinates":[48.875420977789275,2.3266952720717047],"type":"Point"}},{"type":"Feature","properties":{"id":"1986","lineName":"12","name":"Corentin-Celton","description":"Paul Vaillant Couturier (place) - 92040","latitude":48.82682988739414,"longitude":2.278966861574341},"geometry":{"coordinates":[48.82682988739414,2.278966861574341],"type":"Point"}},{"type":"Feature","properties":{"id":"2037","lineName":"12","name":"Abbesses","description":"Abbesses (place des, face au 2 rue de la Vieuville) - 75118","latitude":48.8843997149084,"longitude":2.338399384171042},"geometry":{"coordinates":[48.8843997149084,2.338399384171042],"type":"Point"}},{"type":"Feature","properties":{"id":"1984","lineName":"12","name":"Convention","description":"Vaugirard (337 rue de) - 75115","latitude":48.83713694956265,"longitude":2.296396090155559},"geometry":{"coordinates":[48.83713694956265,2.296396090155559],"type":"Point"}},{"type":"Feature","properties":{"id":"1842","lineName":"12","name":"Notre-Dame des Champs","description":"Raspail (terre-plein face au 112 boulevard, 123 bd Raspail/35 r. N-D des Champs) - 75106","latitude":48.84478304833005,"longitude":2.3284444832927207},"geometry":{"coordinates":[48.84478304833005,2.3284444832927207],"type":"Point"}},{"type":"Feature","properties":{"id":"2365","lineName":"12","name":"Montparnasse-Bienvenue","description":"Raoul Dautry (place, SNCF Montparnasse) - 75114","latitude":48.844027636151914,"longitude":2.323569797217576},"geometry":{"coordinates":[48.844027636151914,2.323569797217576],"type":"Point"}},{"type":"Feature","properties":{"id":"1841","lineName":"12","name":"Notre-Dame de Lorette","description":"Bourdaloué (1 rue, en face) - 75109","latitude":48.876050554237366,"longitude":2.337908692037609},"geometry":{"coordinates":[48.876050554237366,2.337908692037609],"type":"Point"}},{"type":"Feature","properties":{"id":"1982","lineName":"12","name":"Concorde","description":"Tuileries (jardin des, le long du jardin et face È la place Concorde) PARIS-08 - 75108","latitude":48.8654893908901,"longitude":2.321411789213801},"geometry":{"coordinates":[48.8654893908901,2.321411789213801],"type":"Point"}},{"type":"Feature","properties":{"id":"2512","lineName":"12","name":"Volontaires","description":"Volontaires (25 rue des) - 75115","latitude":48.84141844267774,"longitude":2.307993649386661},"geometry":{"coordinates":[48.84141844267774,2.307993649386661],"type":"Point"}},{"type":"Feature","properties":{"id":"1691","lineName":"12","name":"Vaugirard (Adolphe Chérioux)","description":"Vergenne (square de, vers la rue des Favorites) - 75115","latitude":48.83943928123955,"longitude":2.3010780424739252},"geometry":{"coordinates":[48.83943928123955,2.3010780424739252],"type":"Point"}},{"type":"Feature","properties":{"id":"2267","lineName":"12","name":"Jules Joffrin","description":"Ordener (115 rue) - 75118","latitude":48.89249697693026,"longitude":2.3443284105515048},"geometry":{"coordinates":[48.89249697693026,2.3443284105515048],"type":"Point"}},{"type":"Feature","properties":{"id":"2263","lineName":"12","name":"Falguière","description":"Cherche-Midi (138 rue du) - 75115","latitude":48.84432338300201,"longitude":2.317564676180599},"geometry":{"coordinates":[48.84432338300201,2.317564676180599],"type":"Point"}},{"type":"Feature","properties":{"id":"1792","lineName":"12","name":"Pigalle","description":"Clichy (26 boulevard de) - 75118","latitude":48.88202708962622,"longitude":2.337213801747862},"geometry":{"coordinates":[48.88202708962622,2.337213801747862],"type":"Point"}},{"type":"Feature","properties":{"id":"2172","lineName":"12","name":"Concorde","description":"Tuileries (jardin des, le long du jardin et face È la place Concorde) PARIS-08 - 75108","latitude":48.8654893908901,"longitude":2.321411789213801},"geometry":{"coordinates":[48.8654893908901,2.321411789213801],"type":"Point"}},{"type":"Feature","properties":{"id":"2174","lineName":"12","name":"Convention","description":"Vaugirard (337 rue de) - 75115","latitude":48.83713694956265,"longitude":2.296396090155559},"geometry":{"coordinates":[48.83713694956265,2.296396090155559],"type":"Point"}},{"type":"Feature","properties":{"id":"2176","lineName":"12","name":"Corentin-Celton","description":"Paul Vaillant Couturier (place) - 92040","latitude":48.82682988739414,"longitude":2.278966861574341},"geometry":{"coordinates":[48.82682988739414,2.278966861574341],"type":"Point"}},{"type":"Feature","properties":{"id":"2279","lineName":"12","name":"Marcadet-Poissonniers","description":"Poissonniers (69 rue des) - 75118","latitude":48.89160682271851,"longitude":2.349548310988923},"geometry":{"coordinates":[48.89160682271851,2.349548310988923],"type":"Point"}},{"type":"Feature","properties":{"id":"1750","lineName":"12","name":"Porte de Versailles","description":"Victor (73 boulevard) - 75115","latitude":48.832253452749,"longitude":2.287864137819189},"geometry":{"coordinates":[48.832253452749,2.287864137819189],"type":"Point"}},{"type":"Feature","properties":{"id":"2496","lineName":"12","name":"Trinité-d'Estienne d'Orves","description":"Estienne d'Orves (2 place d') - 75109","latitude":48.8763290374387,"longitude":2.331804568510596},"geometry":{"coordinates":[48.8763290374387,2.331804568510596],"type":"Point"}},{"type":"Feature","properties":{"id":"2455","lineName":"12","name":"Rue du Bac","description":"Raspail (terre-plein face au 2 boulevard) - 75107","latitude":48.85589133781551,"longitude":2.325704993899314},"geometry":{"coordinates":[48.85589133781551,2.325704993899314],"type":"Point"}},{"type":"Feature","properties":{"id":"2397","lineName":"13","name":"Pernety","description":"Raymond Losserand (72 rue) - 75114","latitude":48.833933819810916,"longitude":2.31790897216328},"geometry":{"coordinates":[48.833933819810916,2.31790897216328],"type":"Point"}},{"type":"Feature","properties":{"id":"1969","lineName":"13","name":"Châtillon Montrouge","description":"République (220 avenue de la) - 92020","latitude":48.810283363510756,"longitude":2.3012888709759522},"geometry":{"coordinates":[48.810283363510756,2.3012888709759522],"type":"Point"}},{"type":"Feature","properties":{"id":"2406","lineName":"13","name":"Place de Clichy","description":"Clichy (terre-plein face au 7 place de) - 75109","latitude":48.883203999876585,"longitude":2.3272660246411383},"geometry":{"coordinates":[48.883203999876585,2.3272660246411383],"type":"Point"}},{"type":"Feature","properties":{"id":"2372","lineName":"13","name":"Plaisance","description":"Alésia (211 rue d', 136 rue Raymond Losserand) - 75114","latitude":48.83175809378841,"longitude":2.3138665498481625},"geometry":{"coordinates":[48.83175809378841,2.3138665498481625],"type":"Point"}},{"type":"Feature","properties":{"id":"1928","lineName":"13","name":"Duroc","description":"Sèvres (88 rue de) - 75107","latitude":48.84699250092279,"longitude":2.3165423447702307},"geometry":{"coordinates":[48.84699250092279,2.3165423447702307],"type":"Point"}},{"type":"Feature","properties":{"id":"1692060","lineName":"13","name":"Carrefour-Pleyel","description":"Boulevard Ornano - 93066","latitude":48.9199435050834,"longitude":2.3439094197858905},"geometry":{"coordinates":[48.9199435050834,2.3439094197858905],"type":"Point"}},{"type":"Feature","properties":{"id":"1692061","lineName":"13","name":"Carrefour-Pleyel","description":"Boulevard Ornano - 93066","latitude":48.9199435050834,"longitude":2.3439094197858905},"geometry":{"coordinates":[48.9199435050834,2.3439094197858905],"type":"Point"}},{"type":"Feature","properties":{"id":"2165","lineName":"13","name":"Brochant","description":"Brochant (47 rue, 129 avenue de Clichy) - 75117","latitude":48.89062663302413,"longitude":2.320191121275328},"geometry":{"coordinates":[48.89062663302413,2.320191121275328],"type":"Point"}},{"type":"Feature","properties":{"id":"1820","lineName":"13","name":"Miromesnil","description":"Percier (1 avenue, angle avec le 42 rue de la BoÍtie) - 75108","latitude":48.87346032551137,"longitude":2.3160412889150637},"geometry":{"coordinates":[48.87346032551137,2.3160412889150637],"type":"Point"}},{"type":"Feature","properties":{"id":"2202","lineName":"13","name":"Gabriel-Péri","description":"Gare routière - 92004","latitude":48.916574835983226,"longitude":2.2943289646870606},"geometry":{"coordinates":[48.916574835983226,2.2943289646870606],"type":"Point"}},{"type":"Feature","properties":{"id":"2536","lineName":"13","name":"La Fourche","description":"Clichy (66 avenue de, 6 avenue de Saint-Ouen) - 75117","latitude":48.8874368425293,"longitude":2.3257252220174083},"geometry":{"coordinates":[48.8874368425293,2.3257252220174083],"type":"Point"}},{"type":"Feature","properties":{"id":"2203","lineName":"13","name":"Gaité","description":"Maine (avenue du, côté pair vers l'hôpital Léopol Bellan) - 75114","latitude":48.838751821388634,"longitude":2.322509186224712},"geometry":{"coordinates":[48.838751821388634,2.322509186224712],"type":"Point"}},{"type":"Feature","properties":{"id":"1724","lineName":"13","name":"Saint-Lazare","description":"Saint-Lazare (97 rue) - 75108","latitude":48.876067814352574,"longitude":2.324188100771013},"geometry":{"coordinates":[48.876067814352574,2.324188100771013],"type":"Point"}},{"type":"Feature","properties":{"id":"140078","lineName":"13","name":"Saint-Denis-Universite","description":"Gare Routiere - 93066","latitude":48.94611087248738,"longitude":2.3620451929905992},"geometry":{"coordinates":[48.94611087248738,2.3620451929905992],"type":"Point"}},{"type":"Feature","properties":{"id":"140079","lineName":"13","name":"Saint-Denis-Universite","description":"Gare Routiere - 93066","latitude":48.94611087248738,"longitude":2.3620451929905992},"geometry":{"coordinates":[48.94611087248738,2.3620451929905992],"type":"Point"}},{"type":"Feature","properties":{"id":"2144","lineName":"13","name":"Champs-Elysées-Clémenceau","description":"Clémenceau (place) - 75108","latitude":48.867366570469784,"longitude":2.3141910633936584},"geometry":{"coordinates":[48.867366570469784,2.3141910633936584],"type":"Point"}},{"type":"Feature","properties":{"id":"2009","lineName":"13","name":"Brochant","description":"Brochant (47 rue, 129 avenue de Clichy) - 75117","latitude":48.89062663302413,"longitude":2.320191121275328},"geometry":{"coordinates":[48.89062663302413,2.320191121275328],"type":"Point"}},{"type":"Feature","properties":{"id":"1638","lineName":"13","name":"Varenne","description":"Invalides (13 boulevard des, È côté du ministère du Travail) - 75107","latitude":48.85639306919846,"longitude":2.3147543648102884},"geometry":{"coordinates":[48.85639306919846,2.3147543648102884],"type":"Point"}},{"type":"Feature","properties":{"id":"2293","lineName":"13","name":"Invalides","description":"Université (rue de l') - 75107","latitude":48.86085078966753,"longitude":2.314548112626649},"geometry":{"coordinates":[48.86085078966753,2.314548112626649],"type":"Point"}},{"type":"Feature","properties":{"id":"1827","lineName":"13","name":"Montparnasse-Bienvenue","description":"Raoul Dautry (place, SNCF Montparnasse) - 75114","latitude":48.84207702018728,"longitude":2.321010449555117},"geometry":{"coordinates":[48.84207702018728,2.321010449555117],"type":"Point"}},{"type":"Feature","properties":{"id":"1879","lineName":"13","name":"Malakoff-Plateau de Vanves","description":"Jean Bleuzen (85 rue) - 92020","latitude":48.8224426939998,"longitude":2.2979321053287274},"geometry":{"coordinates":[48.8224426939998,2.2979321053287274],"type":"Point"}},{"type":"Feature","properties":{"id":"1872","lineName":"13","name":"Mairie de Clichy","description":"Martre (90 rue, 11 et 14 rue Landy) - 92024","latitude":48.90400543242958,"longitude":2.3053681208668606},"geometry":{"coordinates":[48.90400543242958,2.3053681208668606],"type":"Point"}},{"type":"Feature","properties":{"id":"1874","lineName":"13","name":"Mairie de Saint-Ouen","description":"République (place de la, mairie) - 93070","latitude":48.91162168038383,"longitude":2.3337369648420916},"geometry":{"coordinates":[48.91162168038383,2.3337369648420916],"type":"Point"}},{"type":"Feature","properties":{"id":"1947","lineName":"13","name":"Gabriel-Péri","description":"Gare routière - 92004","latitude":48.916574835983226,"longitude":2.2943289646870606},"geometry":{"coordinates":[48.916574835983226,2.2943289646870606],"type":"Point"}},{"type":"Feature","properties":{"id":"2426","lineName":"13","name":"Porte de Saint-Ouen","description":"Saint-Ouen (153 avenue de) - 75118","latitude":48.89751173277147,"longitude":2.329021647212208},"geometry":{"coordinates":[48.89751173277147,2.329021647212208],"type":"Point"}},{"type":"Feature","properties":{"id":"2427","lineName":"13","name":"Porte de Vanves","description":"Brune (9 boulevard) - 75114","latitude":48.82776532658967,"longitude":2.3043123507630607},"geometry":{"coordinates":[48.82776532658967,2.3043123507630607],"type":"Point"}},{"type":"Feature","properties":{"id":"1948","lineName":"13","name":"Gaité","description":"Maine (avenue du, côté pair vers l'hôpital Léopol Bellan) - 75114","latitude":48.838751821388634,"longitude":2.322509186224712},"geometry":{"coordinates":[48.838751821388634,2.322509186224712],"type":"Point"}},{"type":"Feature","properties":{"id":"2359","lineName":"13","name":"Miromesnil","description":"Percier (1 avenue, angle avec le 42 rue de la BoÍtie) - 75108","latitude":48.87346032551137,"longitude":2.3160412889150637},"geometry":{"coordinates":[48.87346032551137,2.3160412889150637],"type":"Point"}},{"type":"Feature","properties":{"id":"2253","lineName":"13","name":"Duroc","description":"Sèvres (88 rue de) - 75107","latitude":48.84699250092279,"longitude":2.3165423447702307},"geometry":{"coordinates":[48.84699250092279,2.3165423447702307],"type":"Point"}},{"type":"Feature","properties":{"id":"1749","lineName":"13","name":"Porte de Vanves","description":"Brune (9 boulevard) - 75114","latitude":48.82776532658967,"longitude":2.3043123507630607},"geometry":{"coordinates":[48.82776532658967,2.3043123507630607],"type":"Point"}},{"type":"Feature","properties":{"id":"2214","lineName":"13","name":"Garibaldi","description":"Gabriel Péri (avenue, rue Garibaldi) - 93070","latitude":48.906382164226436,"longitude":2.3319104734589318},"geometry":{"coordinates":[48.906382164226436,2.3319104734589318],"type":"Point"}},{"type":"Feature","properties":{"id":"1748","lineName":"13","name":"Porte de Saint-Ouen","description":"Saint-Ouen (153 avenue de) - 75118","latitude":48.89751173277147,"longitude":2.329021647212208},"geometry":{"coordinates":[48.89751173277147,2.329021647212208],"type":"Point"}},{"type":"Feature","properties":{"id":"1717","lineName":"13","name":"Saint-Denis-Porte de Paris","description":"Légion d'Honneur (rue de la) - 93066","latitude":48.92992666527093,"longitude":2.3561861491888694},"geometry":{"coordinates":[48.92992666527093,2.3561861491888694],"type":"Point"}},{"type":"Feature","properties":{"id":"2462","lineName":"13","name":"Saint-Denis-Porte de Paris","description":"Légion d'Honneur (rue de la) - 93066","latitude":48.92992666527093,"longitude":2.3561861491888694},"geometry":{"coordinates":[48.92992666527093,2.3561861491888694],"type":"Point"}},{"type":"Feature","properties":{"id":"1716","lineName":"13","name":"Basilique de Saint-Denis","description":"Place du Cacquet - 93066","latitude":48.936477492650496,"longitude":2.3596397453045825},"geometry":{"coordinates":[48.936477492650496,2.3596397453045825],"type":"Point"}},{"type":"Feature","properties":{"id":"2464","lineName":"13","name":"Saint-Francois-Xavier","description":"Avenue de Villars - 75107","latitude":48.8509825598235,"longitude":2.31442986460027},"geometry":{"coordinates":[48.8509825598235,2.31442986460027],"type":"Point"}},{"type":"Feature","properties":{"id":"2461","lineName":"13","name":"Basilique de Saint-Denis","description":"Place du Cacquet - 93066","latitude":48.936477492650496,"longitude":2.3596397453045825},"geometry":{"coordinates":[48.936477492650496,2.3596397453045825],"type":"Point"}},{"type":"Feature","properties":{"id":"1719","lineName":"13","name":"Saint-Francois-Xavier","description":"Avenue de Villars - 75107","latitude":48.8509825598235,"longitude":2.31442986460027},"geometry":{"coordinates":[48.8509825598235,2.31442986460027],"type":"Point"}},{"type":"Feature","properties":{"id":"1741","lineName":"13","name":"Porte de Clichy","description":"Porte de Clichy (2 avenue de la) - 75117","latitude":48.894436060297956,"longitude":2.313565665465226},"geometry":{"coordinates":[48.894436060297956,2.313565665465226],"type":"Point"}},{"type":"Feature","properties":{"id":"1880","lineName":"13","name":"Malakoff-Rue Etienne Dolet","description":"Guy Môquet (87 rue) - 92020","latitude":48.81470406056698,"longitude":2.2972847301706394},"geometry":{"coordinates":[48.81470406056698,2.2972847301706394],"type":"Point"}},{"type":"Feature","properties":{"id":"1662795","lineName":"13","name":"Les Agnettes","description":"Angle rue des Bas / Rue Louis Calmel - 92004","latitude":48.92291633150906,"longitude":2.285963896576634},"geometry":{"coordinates":[48.92291633150906,2.285963896576634],"type":"Point"}},{"type":"Feature","properties":{"id":"1662796","lineName":"13","name":"Les Agnettes","description":"Angle rue des Bas / Rue Louis Calmel - 92004","latitude":48.92291633150906,"longitude":2.285963896576634},"geometry":{"coordinates":[48.92291633150906,2.285963896576634],"type":"Point"}},{"type":"Feature","properties":{"id":"1662797","lineName":"13","name":"Asnieres-Gennevilliers Les Courtilles","description":"Angle Boulevard Pierre de Coubertin / Avenue Lucien Lanternier - 92004","latitude":48.93029362287076,"longitude":2.2837606331952487},"geometry":{"coordinates":[48.93029362287076,2.2837606331952487],"type":"Point"}},{"type":"Feature","properties":{"id":"1662798","lineName":"13","name":"Asnieres-Gennevilliers Les Courtilles","description":"Angle Boulevard Pierre de Coubertin / Avenue Lucien Lanternier - 92004","latitude":48.93029362287076,"longitude":2.2837606331952487},"geometry":{"coordinates":[48.93029362287076,2.2837606331952487],"type":"Point"}},{"type":"Feature","properties":{"id":"2284","lineName":"13","name":"Guy-Môquet","description":"Saint-Ouen (86 avenue de) - 75118","latitude":48.893009056051206,"longitude":2.3274958394904894},"geometry":{"coordinates":[48.893009056051206,2.3274958394904894],"type":"Point"}},{"type":"Feature","properties":{"id":"1787","lineName":"13","name":"Pernety","description":"Raymond Losserand (72 rue) - 75114","latitude":48.833933819810916,"longitude":2.31790897216328},"geometry":{"coordinates":[48.833933819810916,2.31790897216328],"type":"Point"}},{"type":"Feature","properties":{"id":"1858","lineName":"13","name":"Liège","description":"Liège (terre-plein face au 21 rue de) - 75108","latitude":48.87953716638082,"longitude":2.3268579472729614},"geometry":{"coordinates":[48.87953716638082,2.3268579472729614],"type":"Point"}},{"type":"Feature","properties":{"id":"2469","lineName":"13","name":"Saint-Lazare","description":"Saint-Lazare (97 rue) - 75108","latitude":48.876067814352574,"longitude":2.324188100771013},"geometry":{"coordinates":[48.876067814352574,2.324188100771013],"type":"Point"}},{"type":"Feature","properties":{"id":"1888","lineName":"13","name":"Guy-Môquet","description":"Saint-Ouen (86 avenue de) - 75118","latitude":48.893009056051206,"longitude":2.3274958394904894},"geometry":{"coordinates":[48.893009056051206,2.3274958394904894],"type":"Point"}},{"type":"Feature","properties":{"id":"1959","lineName":"13","name":"Garibaldi","description":"Gabriel Péri (avenue, rue Garibaldi) - 93070","latitude":48.906382164226436,"longitude":2.3319104734589318},"geometry":{"coordinates":[48.906382164226436,2.3319104734589318],"type":"Point"}},{"type":"Feature","properties":{"id":"2325","lineName":"13","name":"Liège","description":"Liège (terre-plein face au 21 rue de) - 75108","latitude":48.87953716638082,"longitude":2.3268579472729614},"geometry":{"coordinates":[48.87953716638082,2.3268579472729614],"type":"Point"}},{"type":"Feature","properties":{"id":"2268","lineName":"13","name":"Mairie de Clichy","description":"Martre (90 rue, 11 et 14 rue Landy) - 92024","latitude":48.90400543242958,"longitude":2.3053681208668606},"geometry":{"coordinates":[48.90400543242958,2.3053681208668606],"type":"Point"}},{"type":"Feature","properties":{"id":"2366","lineName":"13","name":"Montparnasse-Bienvenue","description":"Raoul Dautry (place, SNCF Montparnasse) - 75114","latitude":48.84207702018728,"longitude":2.321010449555117},"geometry":{"coordinates":[48.84207702018728,2.321010449555117],"type":"Point"}},{"type":"Feature","properties":{"id":"2224","lineName":"13","name":"Châtillon Montrouge","description":"République (220 avenue de la) - 92020","latitude":48.810283363510756,"longitude":2.3012888709759522},"geometry":{"coordinates":[48.810283363510756,2.3012888709759522],"type":"Point"}},{"type":"Feature","properties":{"id":"1656","lineName":"13","name":"La Fourche","description":"Clichy (66 avenue de, 6 avenue de Saint-Ouen) - 75117","latitude":48.8874368425293,"longitude":2.3257252220174083},"geometry":{"coordinates":[48.8874368425293,2.3257252220174083],"type":"Point"}},{"type":"Feature","properties":{"id":"2518","lineName":"13","name":"Varenne","description":"Invalides (13 boulevard des, È côté du ministère du Travail) - 75107","latitude":48.85639306919846,"longitude":2.3147543648102884},"geometry":{"coordinates":[48.85639306919846,2.3147543648102884],"type":"Point"}},{"type":"Feature","properties":{"id":"2270","lineName":"13","name":"Mairie de Saint-Ouen","description":"République (place de la, mairie) - 93070","latitude":48.91162168038383,"longitude":2.3337369648420916},"geometry":{"coordinates":[48.91162168038383,2.3337369648420916],"type":"Point"}},{"type":"Feature","properties":{"id":"2275","lineName":"13","name":"Malakoff-Plateau de Vanves","description":"Jean Bleuzen (85 rue) - 92020","latitude":48.8224426939998,"longitude":2.2979321053287274},"geometry":{"coordinates":[48.8224426939998,2.2979321053287274],"type":"Point"}},{"type":"Feature","properties":{"id":"2276","lineName":"13","name":"Malakoff-Rue Etienne Dolet","description":"Guy Môquet (87 rue) - 92020","latitude":48.81470406056698,"longitude":2.2972847301706394},"geometry":{"coordinates":[48.81470406056698,2.2972847301706394],"type":"Point"}},{"type":"Feature","properties":{"id":"1799","lineName":"13","name":"Plaisance","description":"Alésia (211 rue d', 136 rue Raymond Losserand) - 75114","latitude":48.83175809378841,"longitude":2.3138665498481625},"geometry":{"coordinates":[48.83175809378841,2.3138665498481625],"type":"Point"}},{"type":"Feature","properties":{"id":"2025","lineName":"13","name":"Champs-Elysées-Clémenceau","description":"Clémenceau (place) - 75108","latitude":48.867366570469784,"longitude":2.3141910633936584},"geometry":{"coordinates":[48.867366570469784,2.3141910633936584],"type":"Point"}},{"type":"Feature","properties":{"id":"1897","lineName":"13","name":"Invalides","description":"Université (rue de l') - 75107","latitude":48.86085078966753,"longitude":2.314548112626649},"geometry":{"coordinates":[48.86085078966753,2.314548112626649],"type":"Point"}},{"type":"Feature","properties":{"id":"1796","lineName":"13","name":"Place de Clichy","description":"Clichy (terre-plein face au 7 place de) - 75109","latitude":48.883203999876585,"longitude":2.3272660246411383},"geometry":{"coordinates":[48.883203999876585,2.3272660246411383],"type":"Point"}},{"type":"Feature","properties":{"id":"2419","lineName":"13","name":"Porte de Clichy","description":"Porte de Clichy (2 avenue de la) - 75117","latitude":48.894436060297956,"longitude":2.313565665465226},"geometry":{"coordinates":[48.894436060297956,2.313565665465226],"type":"Point"}},{"type":"Feature","properties":{"id":"1166834","lineName":"14","name":"Châtelet","description":"Victoria (7 avenue, 4 rue Saint-Martin) - 75101","latitude":48.85895618133369,"longitude":2.3473612552142624},"geometry":{"coordinates":[48.85895618133369,2.3473612552142624],"type":"Point"}},{"type":"Feature","properties":{"id":"1166833","lineName":"14","name":"Gare de Lyon","description":"Gare SNCF - 75112","latitude":48.844652150982945,"longitude":2.37310814754528},"geometry":{"coordinates":[48.844652150982945,2.37310814754528],"type":"Point"}},{"type":"Feature","properties":{"id":"1166832","lineName":"14","name":"Gare de Lyon","description":"Gare SNCF - 75112","latitude":48.844652150982945,"longitude":2.37310814754528},"geometry":{"coordinates":[48.844652150982945,2.37310814754528],"type":"Point"}},{"type":"Feature","properties":{"id":"1166831","lineName":"14","name":"Bercy","description":"Place du Bataillon du Pacifique - 75112","latitude":48.840542782965464,"longitude":2.3794094631230687},"geometry":{"coordinates":[48.840542782965464,2.3794094631230687],"type":"Point"}},{"type":"Feature","properties":{"id":"1166838","lineName":"14","name":"Madeleine","description":"Tronchet (2 rue, 3 rue Tronchet) - 75108","latitude":48.869578970578424,"longitude":2.324162488791942},"geometry":{"coordinates":[48.869578970578424,2.324162488791942],"type":"Point"}},{"type":"Feature","properties":{"id":"1166837","lineName":"14","name":"Pyramides","description":"Opéra (19 av de l'Opéra, devant le Royal Opéra) - 75102","latitude":48.86661383061701,"longitude":2.3344075309487886},"geometry":{"coordinates":[48.86661383061701,2.3344075309487886],"type":"Point"}},{"type":"Feature","properties":{"id":"1166836","lineName":"14","name":"Pyramides","description":"Opéra (19 av de l'Opéra, devant le Royal Opéra) - 75102","latitude":48.86661383061701,"longitude":2.3344075309487886},"geometry":{"coordinates":[48.86661383061701,2.3344075309487886],"type":"Point"}},{"type":"Feature","properties":{"id":"1166835","lineName":"14","name":"Châtelet","description":"Victoria (7 avenue, 4 rue Saint-Martin) - 75101","latitude":48.85895618133369,"longitude":2.3473612552142624},"geometry":{"coordinates":[48.85895618133369,2.3473612552142624],"type":"Point"}},{"type":"Feature","properties":{"id":"1166839","lineName":"14","name":"Madeleine","description":"Tronchet (2 rue, 3 rue Tronchet) - 75108","latitude":48.869578970578424,"longitude":2.324162488791942},"geometry":{"coordinates":[48.869578970578424,2.324162488791942],"type":"Point"}},{"type":"Feature","properties":{"id":"1166828","lineName":"14","name":"Cour Saint-Emilion","description":"Cour Chamonard - 75112","latitude":48.83331371557845,"longitude":2.387299704383512},"geometry":{"coordinates":[48.83331371557845,2.387299704383512],"type":"Point"}},{"type":"Feature","properties":{"id":"1166829","lineName":"14","name":"Cour Saint-Emilion","description":"Cour Chamonard - 75112","latitude":48.83331371557845,"longitude":2.387299704383512},"geometry":{"coordinates":[48.83331371557845,2.387299704383512],"type":"Point"}},{"type":"Feature","properties":{"id":"1166826","lineName":"14","name":"Bibliotheque-Francois Mitterrand","description":"Face au 62 rue du Chevaleret - 75113","latitude":48.829830695271106,"longitude":2.376120009344837},"geometry":{"coordinates":[48.829830695271106,2.376120009344837],"type":"Point"}},{"type":"Feature","properties":{"id":"1166827","lineName":"14","name":"Bibliotheque-Francois Mitterrand","description":"Face au 62 rue du Chevaleret - 75113","latitude":48.829830695271106,"longitude":2.376120009344837},"geometry":{"coordinates":[48.829830695271106,2.376120009344837],"type":"Point"}},{"type":"Feature","properties":{"id":"1166824","lineName":"14","name":"Olympiades","description":"91 rue de Tolbiac - 75113","latitude":48.82694828196076,"longitude":2.367038433387592},"geometry":{"coordinates":[48.82694828196076,2.367038433387592],"type":"Point"}},{"type":"Feature","properties":{"id":"1166825","lineName":"14","name":"Olympiades","description":"91 rue de Tolbiac - 75113","latitude":48.82694828196076,"longitude":2.367038433387592},"geometry":{"coordinates":[48.82694828196076,2.367038433387592],"type":"Point"}},{"type":"Feature","properties":{"id":"1166830","lineName":"14","name":"Bercy","description":"Place du Bataillon du Pacifique - 75112","latitude":48.840542782965464,"longitude":2.3794094631230687},"geometry":{"coordinates":[48.840542782965464,2.3794094631230687],"type":"Point"}},{"type":"Feature","properties":{"id":"1166840","lineName":"14","name":"Saint-Lazare","description":"Saint-Lazare (97 rue) - 75108","latitude":48.8755376703957,"longitude":2.3251964899774276},"geometry":{"coordinates":[48.8755376703957,2.3251964899774276],"type":"Point"}},{"type":"Feature","properties":{"id":"1166841","lineName":"14","name":"Saint-Lazare","description":"Saint-Lazare (97 rue) - 75108","latitude":48.8755376703957,"longitude":2.3251964899774276},"geometry":{"coordinates":[48.8755376703957,2.3251964899774276],"type":"Point"}},{"type":"Feature","properties":{"id":"2338","lineName":"2","name":"Nation","description":"Nation (terre-plein face au 3 place de la) - 75112","latitude":48.84942390087223,"longitude":2.3970250382993576},"geometry":{"coordinates":[48.84942390087223,2.3970250382993576],"type":"Point"}},{"type":"Feature","properties":{"id":"2504","lineName":"2","name":"Victor Hugo","description":"Victor Hugo (4 place, angle avec l'avenue Raymond Poincarré) - 75116","latitude":48.869864912484076,"longitude":2.285226207250439},"geometry":{"coordinates":[48.869864912484076,2.285226207250439],"type":"Point"}},{"type":"Feature","properties":{"id":"2401","lineName":"2","name":"Pigalle","description":"Clichy (26 boulevard de) - 75118","latitude":48.88242252841757,"longitude":2.337254682101535},"geometry":{"coordinates":[48.88242252841757,2.337254682101535],"type":"Point"}},{"type":"Feature","properties":{"id":"2235","lineName":"2","name":"La Chapelle","description":"Chapelle (entrée sous viaduc face au 35 boulevard de la) - 75110","latitude":48.884388698358165,"longitude":2.3592765642767297},"geometry":{"coordinates":[48.884388698358165,2.3592765642767297],"type":"Point"}},{"type":"Feature","properties":{"id":"2398","lineName":"2","name":"Philippe Auguste","description":"Mont-Louis (19 rue de, 131 avenue Philippe Auguste) - 75111","latitude":48.85837884146994,"longitude":2.3897347327397043},"geometry":{"coordinates":[48.85837884146994,2.3897347327397043],"type":"Point"}},{"type":"Feature","properties":{"id":"1833","lineName":"2","name":"Nation","description":"Nation (terre-plein face au 3 place de la) - 75112","latitude":48.84942390087223,"longitude":2.3970250382993576},"geometry":{"coordinates":[48.84942390087223,2.3970250382993576],"type":"Point"}},{"type":"Feature","properties":{"id":"2405","lineName":"2","name":"Place de Clichy","description":"Clichy (terre-plein face au 7 place de) - 75109","latitude":48.88345565159549,"longitude":2.3273749934103556},"geometry":{"coordinates":[48.88345565159549,2.3273749934103556],"type":"Point"}},{"type":"Feature","properties":{"id":"2394","lineName":"2","name":"Père-Lachaise","description":"République (avenue de la) - 75111","latitude":48.86316120506396,"longitude":2.3872604001843536},"geometry":{"coordinates":[48.86316120506396,2.3872604001843536],"type":"Point"}},{"type":"Feature","properties":{"id":"1736","lineName":"2","name":"Porte Dauphine (Maréchal de Lattre de Tassigny)","description":"Foch (avenue, côté impair) - 75116","latitude":48.87179221641751,"longitude":2.27486996119569},"geometry":{"coordinates":[48.87179221641751,2.27486996119569],"type":"Point"}},{"type":"Feature","properties":{"id":"2547","lineName":"2","name":"Barbès-Rochechouart","description":"Rochechouart (2 boulevard de, vers le boulevard Barbès) - 75109","latitude":48.88368010927906,"longitude":2.3495328036519307},"geometry":{"coordinates":[48.88368010927906,2.3495328036519307],"type":"Point"}},{"type":"Feature","properties":{"id":"2548","lineName":"2","name":"Belleville","description":"Villette (terre-plein face au 1 boulevard de la) - 75119","latitude":48.87228732058717,"longitude":2.3767376773224687},"geometry":{"coordinates":[48.87228732058717,2.3767376773224687],"type":"Point"}},{"type":"Feature","properties":{"id":"2168","lineName":"2","name":"Colonel Fabien","description":"Villette (terre-plein face au 83 boulevard de la) - 75110","latitude":48.87818498179219,"longitude":2.3701745466363584},"geometry":{"coordinates":[48.87818498179219,2.3701745466363584],"type":"Point"}},{"type":"Feature","properties":{"id":"1629","lineName":"2","name":"Villiers","description":"Courcelles (27 boulevard de) - 75117","latitude":48.88132429394468,"longitude":2.3165967615088174},"geometry":{"coordinates":[48.88132429394468,2.3165967615088174],"type":"Point"}},{"type":"Feature","properties":{"id":"2071","lineName":"2","name":"Blanche","description":"Clichy (terre-plein face au 59 boulevard de) - 75118","latitude":48.88377051883179,"longitude":2.332485148274094},"geometry":{"coordinates":[48.88377051883179,2.332485148274094],"type":"Point"}},{"type":"Feature","properties":{"id":"2509","lineName":"2","name":"Villiers","description":"Courcelles (27 boulevard de) - 75117","latitude":48.88132429394468,"longitude":2.3165967615088174},"geometry":{"coordinates":[48.88132429394468,2.3165967615088174],"type":"Point"}},{"type":"Feature","properties":{"id":"2484","lineName":"2","name":"Stalingrad","description":"Villette (244/171 boulevard de la) - 75119","latitude":48.88418929420877,"longitude":2.367030441974567},"geometry":{"coordinates":[48.88418929420877,2.367030441974567],"type":"Point"}},{"type":"Feature","properties":{"id":"2096","lineName":"2","name":"Anvers","description":"Rochechouart (68 boulevard) - 75118","latitude":48.882871690180586,"longitude":2.344163572800391},"geometry":{"coordinates":[48.882871690180586,2.344163572800391],"type":"Point"}},{"type":"Feature","properties":{"id":"1822","lineName":"2","name":"Monceau","description":"République Dominicaine (1 place de la) - 75108","latitude":48.88057689074842,"longitude":2.309415946164807},"geometry":{"coordinates":[48.88057689074842,2.309415946164807],"type":"Point"}},{"type":"Feature","properties":{"id":"1674","lineName":"2","name":"Stalingrad","description":"Villette (244/171 boulevard de la) - 75119","latitude":48.88418929420877,"longitude":2.367030441974567},"geometry":{"coordinates":[48.88418929420877,2.367030441974567],"type":"Point"}},{"type":"Feature","properties":{"id":"2160","lineName":"2","name":"Alexandre-Dumas","description":"Charonne (111 boulevard de, 180 rue de Charonne et 1 rue de Bagnolet) - 75111","latitude":48.856426348325236,"longitude":2.394554257654992},"geometry":{"coordinates":[48.856426348325236,2.394554257654992],"type":"Point"}},{"type":"Feature","properties":{"id":"2058","lineName":"2","name":"Avron","description":"Charonne (terre-plein face au 35 boulevard de) - 75111","latitude":48.851193819213286,"longitude":2.398239140823123},"geometry":{"coordinates":[48.851193819213286,2.398239140823123],"type":"Point"}},{"type":"Feature","properties":{"id":"2107","lineName":"2","name":"Avron","description":"Charonne (terre-plein face au 35 boulevard de) - 75111","latitude":48.851193819213286,"longitude":2.398239140823123},"geometry":{"coordinates":[48.851193819213286,2.398239140823123],"type":"Point"}},{"type":"Feature","properties":{"id":"1978","lineName":"2","name":"Colonel Fabien","description":"Villette (terre-plein face au 83 boulevard de la) - 75110","latitude":48.87818498179219,"longitude":2.3701745466363584},"geometry":{"coordinates":[48.87818498179219,2.3701745466363584],"type":"Point"}},{"type":"Feature","properties":{"id":"2296","lineName":"2","name":"Jaurès","description":"Villette (entrée sous viaduc face au 196 boulevard de la) - 75119","latitude":48.88276854674882,"longitude":2.36994579899074},"geometry":{"coordinates":[48.88276854674882,2.36994579899074],"type":"Point"}},{"type":"Feature","properties":{"id":"2148","lineName":"2","name":"Charles de Gaulle-Etoile","description":"Charles de Gaulle (place, avenue Hoche) - 75108","latitude":48.87399384072475,"longitude":2.294663961825911},"geometry":{"coordinates":[48.87399384072475,2.294663961825911],"type":"Point"}},{"type":"Feature","properties":{"id":"2351","lineName":"2","name":"Ménilmontant","description":"Ménilmontant (139/148 boulevard de) - 75111","latitude":48.865705787623,"longitude":2.3844293751632057},"geometry":{"coordinates":[48.865705787623,2.3844293751632057],"type":"Point"}},{"type":"Feature","properties":{"id":"2087","lineName":"2","name":"Belleville","description":"Villette (terre-plein face au 1 boulevard de la) - 75119","latitude":48.87228732058717,"longitude":2.3767376773224687},"geometry":{"coordinates":[48.87228732058717,2.3767376773224687],"type":"Point"}},{"type":"Feature","properties":{"id":"2086","lineName":"2","name":"Barbès-Rochechouart","description":"Rochechouart (2 boulevard de, vers le boulevard Barbès) - 75109","latitude":48.88368010927906,"longitude":2.3495328036519307},"geometry":{"coordinates":[48.88368010927906,2.3495328036519307],"type":"Point"}},{"type":"Feature","properties":{"id":"2046","lineName":"2","name":"Anvers","description":"Rochechouart (68 boulevard) - 75118","latitude":48.882871690180586,"longitude":2.344163572800391},"geometry":{"coordinates":[48.882871690180586,2.344163572800391],"type":"Point"}},{"type":"Feature","properties":{"id":"1812","lineName":"2","name":"Ménilmontant","description":"Ménilmontant (139/148 boulevard de) - 75111","latitude":48.865705787623,"longitude":2.3844293751632057},"geometry":{"coordinates":[48.865705787623,2.3844293751632057],"type":"Point"}},{"type":"Feature","properties":{"id":"1684","lineName":"2","name":"Ternes","description":"Ternes (place des) - 75117","latitude":48.87822804050767,"longitude":2.2981214325821844},"geometry":{"coordinates":[48.87822804050767,2.2981214325821844],"type":"Point"}},{"type":"Feature","properties":{"id":"2041","lineName":"2","name":"Alexandre-Dumas","description":"Charonne (111 boulevard de, 180 rue de Charonne et 1 rue de Bagnolet) - 75111","latitude":48.856426348325236,"longitude":2.394554257654992},"geometry":{"coordinates":[48.856426348325236,2.394554257654992],"type":"Point"}},{"type":"Feature","properties":{"id":"1900","lineName":"2","name":"Jaurès","description":"Villette (entrée sous viaduc face au 196 boulevard de la) - 75119","latitude":48.88276854674882,"longitude":2.36994579899074},"geometry":{"coordinates":[48.88276854674882,2.36994579899074],"type":"Point"}},{"type":"Feature","properties":{"id":"1788","lineName":"2","name":"Philippe Auguste","description":"Mont-Louis (19 rue de, 131 avenue Philippe Auguste) - 75111","latitude":48.85837884146994,"longitude":2.3897347327397043},"geometry":{"coordinates":[48.85837884146994,2.3897347327397043],"type":"Point"}},{"type":"Feature","properties":{"id":"1784","lineName":"2","name":"Père-Lachaise","description":"République (avenue de la) - 75111","latitude":48.86316120506396,"longitude":2.3872604001843536},"geometry":{"coordinates":[48.86316120506396,2.3872604001843536],"type":"Point"}},{"type":"Feature","properties":{"id":"1989","lineName":"2","name":"Courcelles","description":"Courcelles (53 boulevard de) - 75108","latitude":48.87927215163157,"longitude":2.303298546682486},"geometry":{"coordinates":[48.87927215163157,2.303298546682486],"type":"Point"}},{"type":"Feature","properties":{"id":"2079","lineName":"2","name":"Couronnes","description":"Belleville (37 boulevard de) - 75111","latitude":48.86932916949657,"longitude":2.3805363661617247},"geometry":{"coordinates":[48.86932916949657,2.3805363661617247],"type":"Point"}},{"type":"Feature","properties":{"id":"2361","lineName":"2","name":"Monceau","description":"République Dominicaine (1 place de la) - 75108","latitude":48.88057689074842,"longitude":2.309415946164807},"geometry":{"coordinates":[48.88057689074842,2.309415946164807],"type":"Point"}},{"type":"Feature","properties":{"id":"2414","lineName":"2","name":"Porte Dauphine (Maréchal de Lattre de Tassigny)","description":"Foch (avenue, côté impair) - 75116","latitude":48.87179221641751,"longitude":2.27486996119569},"geometry":{"coordinates":[48.87179221641751,2.27486996119569],"type":"Point"}},{"type":"Feature","properties":{"id":"1694","lineName":"2","name":"Victor Hugo","description":"Victor Hugo (4 place, angle avec l'avenue Raymond Poincarré) - 75116","latitude":48.869864912484076,"longitude":2.285226207250439},"geometry":{"coordinates":[48.869864912484076,2.285226207250439],"type":"Point"}},{"type":"Feature","properties":{"id":"1791","lineName":"2","name":"Pigalle","description":"Clichy (26 boulevard de) - 75118","latitude":48.88242252841757,"longitude":2.337254682101535},"geometry":{"coordinates":[48.88242252841757,2.337254682101535],"type":"Point"}},{"type":"Feature","properties":{"id":"2452","lineName":"2","name":"Rome","description":"Batignolles (60 boulevard des) - 75117","latitude":48.88207083393704,"longitude":2.3203983393099863},"geometry":{"coordinates":[48.88207083393704,2.3203983393099863],"type":"Point"}},{"type":"Feature","properties":{"id":"2120","lineName":"2","name":"Blanche","description":"Clichy (terre-plein face au 59 boulevard de) - 75118","latitude":48.88377051883179,"longitude":2.332485148274094},"geometry":{"coordinates":[48.88377051883179,2.332485148274094],"type":"Point"}},{"type":"Feature","properties":{"id":"1707","lineName":"2","name":"Rome","description":"Batignolles (60 boulevard des) - 75117","latitude":48.88207083393704,"longitude":2.3203983393099863},"geometry":{"coordinates":[48.88207083393704,2.3203983393099863],"type":"Point"}},{"type":"Feature","properties":{"id":"2029","lineName":"2","name":"Charles de Gaulle-Etoile","description":"Charles de Gaulle (place, avenue Hoche) - 75108","latitude":48.87399384072475,"longitude":2.294663961825911},"geometry":{"coordinates":[48.87399384072475,2.294663961825911],"type":"Point"}},{"type":"Feature","properties":{"id":"1910","lineName":"2","name":"La Chapelle","description":"Chapelle (entrée sous viaduc face au 35 boulevard de la) - 75110","latitude":48.884388698358165,"longitude":2.3592765642767297},"geometry":{"coordinates":[48.884388698358165,2.3592765642767297],"type":"Point"}},{"type":"Feature","properties":{"id":"2179","lineName":"2","name":"Courcelles","description":"Courcelles (53 boulevard de) - 75108","latitude":48.87927215163157,"longitude":2.303298546682486},"geometry":{"coordinates":[48.87927215163157,2.303298546682486],"type":"Point"}},{"type":"Feature","properties":{"id":"2128","lineName":"2","name":"Couronnes","description":"Belleville (37 boulevard de) - 75111","latitude":48.86932916949657,"longitude":2.3805363661617247},"geometry":{"coordinates":[48.86932916949657,2.3805363661617247],"type":"Point"}},{"type":"Feature","properties":{"id":"1795","lineName":"2","name":"Place de Clichy","description":"Clichy (terre-plein face au 7 place de) - 75109","latitude":48.88345565159549,"longitude":2.3273749934103556},"geometry":{"coordinates":[48.88345565159549,2.3273749934103556],"type":"Point"}},{"type":"Feature","properties":{"id":"2494","lineName":"2","name":"Ternes","description":"Ternes (place des) - 75117","latitude":48.87822804050767,"longitude":2.2981214325821844},"geometry":{"coordinates":[48.87822804050767,2.2981214325821844],"type":"Point"}},{"type":"Feature","properties":{"id":"2396","lineName":"3","name":"Péreire","description":"Courcelles (184 rue de, angle avec le105 avenue de Villiers) - 75117","latitude":48.8850310612536,"longitude":2.2971351115061647},"geometry":{"coordinates":[48.8850310612536,2.2971351115061647],"type":"Point"}},{"type":"Feature","properties":{"id":"2542","lineName":"3","name":"Sentier","description":"Réaumur (97 rue) - 75102","latitude":48.8673503814313,"longitude":2.3475672354150805},"geometry":{"coordinates":[48.8673503814313,2.3475672354150805],"type":"Point"}},{"type":"Feature","properties":{"id":"2376","lineName":"3","name":"République","description":"Voltaire (1 boulevard, en face) - 75111","latitude":48.86725794359829,"longitude":2.3640373036390545},"geometry":{"coordinates":[48.86725794359829,2.3640373036390545],"type":"Point"}},{"type":"Feature","properties":{"id":"2375","lineName":"3","name":"Réaumur-Sébastopol","description":"Saint-Denis (182 rue) - 75102","latitude":48.86628035856129,"longitude":2.352484796837845},"geometry":{"coordinates":[48.86628035856129,2.352484796837845],"type":"Point"}},{"type":"Feature","properties":{"id":"2395","lineName":"3","name":"Père-Lachaise","description":"République (avenue de la) - 75111","latitude":48.862945661667425,"longitude":2.3868924045430804},"geometry":{"coordinates":[48.862945661667425,2.3868924045430804],"type":"Point"}},{"type":"Feature","properties":{"id":"1662","lineName":"3","name":"Sentier","description":"Réaumur (97 rue) - 75102","latitude":48.8673503814313,"longitude":2.3475672354150805},"geometry":{"coordinates":[48.8673503814313,2.3475672354150805],"type":"Point"}},{"type":"Feature","properties":{"id":"1765","lineName":"3","name":"Réaumur-Sébastopol","description":"Saint-Denis (182 rue) - 75102","latitude":48.86628035856129,"longitude":2.352484796837845},"geometry":{"coordinates":[48.86628035856129,2.352484796837845],"type":"Point"}},{"type":"Feature","properties":{"id":"2163","lineName":"3","name":"Anatole-France","description":"Général Leclerc (place, côté pair et rue Anatole France et rue Voltaire) - 92044","latitude":48.892018626328884,"longitude":2.2855174447944844},"geometry":{"coordinates":[48.892018626328884,2.2855174447944844],"type":"Point"}},{"type":"Feature","properties":{"id":"1737","lineName":"3","name":"Porte de Bagnolet","description":"Py (rue de la) - 75120","latitude":48.864336535483645,"longitude":2.4088253760377283},"geometry":{"coordinates":[48.864336535483645,2.4088253760377283],"type":"Point"}},{"type":"Feature","properties":{"id":"1766","lineName":"3","name":"République","description":"Voltaire (1 boulevard, en face) - 75111","latitude":48.86725794359829,"longitude":2.3640373036390545},"geometry":{"coordinates":[48.86725794359829,2.3640373036390545],"type":"Point"}},{"type":"Feature","properties":{"id":"1738","lineName":"3","name":"Porte de Champerret","description":"Villiers (143 rue de) - 75117","latitude":48.88573915969202,"longitude":2.2918606206755348},"geometry":{"coordinates":[48.88573915969202,2.2918606206755348],"type":"Point"}},{"type":"Feature","properties":{"id":"1760","lineName":"3","name":"Quatre Septembre","description":"Quatre Septembre (20 rue du) - 75102","latitude":48.86966057219203,"longitude":2.3363282816417112},"geometry":{"coordinates":[48.86966057219203,2.3363282816417112],"type":"Point"}},{"type":"Feature","properties":{"id":"1862","lineName":"3","name":"Louise Michel","description":"Louise Michel (30 rue) - 92044","latitude":48.889269622246026,"longitude":2.2880551248039036},"geometry":{"coordinates":[48.889269622246026,2.2880551248039036],"type":"Point"}},{"type":"Feature","properties":{"id":"2099","lineName":"3","name":"Arts-et-Métiers","description":"Vertus (rue des) - 75103","latitude":48.865551863634785,"longitude":2.356108155120312},"geometry":{"coordinates":[48.865551863634785,2.356108155120312],"type":"Point"}},{"type":"Feature","properties":{"id":"1634","lineName":"3","name":"Wagram","description":"Villiers (74 avenue de) - 75117","latitude":48.883712476037346,"longitude":2.3055577575143036},"geometry":{"coordinates":[48.883712476037346,2.3055577575143036],"type":"Point"}},{"type":"Feature","properties":{"id":"2341","lineName":"3","name":"Pont de Levallois-Bécon","description":"Baudin (rue, angle avec la rue Anatole France) - 92044","latitude":48.89730990517954,"longitude":2.2807686428069003},"geometry":{"coordinates":[48.89730990517954,2.2807686428069003],"type":"Point"}},{"type":"Feature","properties":{"id":"1722","lineName":"3","name":"Saint-Lazare","description":"Saint-Lazare (97 rue) - 75108","latitude":48.87568150641968,"longitude":2.325591584819959},"geometry":{"coordinates":[48.87568150641968,2.325591584819959],"type":"Point"}},{"type":"Feature","properties":{"id":"2204","lineName":"3","name":"Gallieni (Parc de Bagnolet)","description":"Gare routière - 93006","latitude":48.86326252650054,"longitude":2.415975368499958},"geometry":{"coordinates":[48.86326252650054,2.415975368499958],"type":"Point"}},{"type":"Feature","properties":{"id":"2205","lineName":"3","name":"Gambetta","description":"Père-Lachaise (avenue du, rue des Pyrénées) - 75120","latitude":48.864782700687876,"longitude":2.398445833771861},"geometry":{"coordinates":[48.864782700687876,2.398445833771861],"type":"Point"}},{"type":"Feature","properties":{"id":"1630","lineName":"3","name":"Villiers","description":"Courcelles (27 boulevard de) - 75117","latitude":48.88140510041144,"longitude":2.316147050907411},"geometry":{"coordinates":[48.88140510041144,2.316147050907411],"type":"Point"}},{"type":"Feature","properties":{"id":"2389","lineName":"3","name":"Parmentier","description":"République (48 avenue de la, 87 avenue Parmentier) - 75111","latitude":48.86525985667316,"longitude":2.3747570817167682},"geometry":{"coordinates":[48.86525985667316,2.3747570817167682],"type":"Point"}},{"type":"Feature","properties":{"id":"1935","lineName":"3","name":"Europe","description":"Madrid (1 rue de) - 75108","latitude":48.87906043921274,"longitude":2.3229746324058937},"geometry":{"coordinates":[48.87906043921274,2.3229746324058937],"type":"Point"}},{"type":"Feature","properties":{"id":"2007","lineName":"3","name":"Bourse","description":"Notre-Dame des Victoires (rue) - 75102","latitude":48.86876179259638,"longitude":2.3406741288121005},"geometry":{"coordinates":[48.86876179259638,2.3406741288121005],"type":"Point"}},{"type":"Feature","properties":{"id":"1728","lineName":"3","name":"Rue Saint-Maur","description":"Servan (71 rue, rue Guillaume Bertrand) - 75111","latitude":48.86408940574645,"longitude":2.3808997885521195},"geometry":{"coordinates":[48.86408940574645,2.3808997885521195],"type":"Point"}},{"type":"Feature","properties":{"id":"1779","lineName":"3","name":"Parmentier","description":"République (48 avenue de la, 87 avenue Parmentier) - 75111","latitude":48.86525985667316,"longitude":2.3747570817167682},"geometry":{"coordinates":[48.86525985667316,2.3747570817167682],"type":"Point"}},{"type":"Feature","properties":{"id":"2471","lineName":"3","name":"Rue Saint-Maur","description":"Servan (71 rue, rue Guillaume Bertrand) - 75111","latitude":48.86408940574645,"longitude":2.3808997885521195},"geometry":{"coordinates":[48.86408940574645,2.3808997885521195],"type":"Point"}},{"type":"Feature","properties":{"id":"2438","lineName":"3","name":"Quatre Septembre","description":"Quatre Septembre (20 rue du) - 75102","latitude":48.86966057219203,"longitude":2.3363282816417112},"geometry":{"coordinates":[48.86966057219203,2.3363282816417112],"type":"Point"}},{"type":"Feature","properties":{"id":"2196","lineName":"3","name":"Bourse","description":"Notre-Dame des Victoires (rue) - 75102","latitude":48.86876179259638,"longitude":2.3406741288121005},"geometry":{"coordinates":[48.86876179259638,2.3406741288121005],"type":"Point"}},{"type":"Feature","properties":{"id":"1949","lineName":"3","name":"Gallieni (Parc de Bagnolet)","description":"Gare routière - 93006","latitude":48.86326252650054,"longitude":2.415975368499958},"geometry":{"coordinates":[48.86326252650054,2.415975368499958],"type":"Point"}},{"type":"Feature","properties":{"id":"2313","lineName":"3","name":"Opéra","description":"Scribe (6 rue, angle avec le 2 rue Auber) - 75109","latitude":48.870720976292084,"longitude":2.3322547435729586},"geometry":{"coordinates":[48.870720976292084,2.3322547435729586],"type":"Point"}},{"type":"Feature","properties":{"id":"2044","lineName":"3","name":"Anatole-France","description":"Général Leclerc (place, côté pair et rue Anatole France et rue Voltaire) - 92044","latitude":48.892018626328884,"longitude":2.2855174447944844},"geometry":{"coordinates":[48.892018626328884,2.2855174447944844],"type":"Point"}},{"type":"Feature","properties":{"id":"1683","lineName":"3","name":"Temple","description":"Temple (rue du, angle avec la rue Turbigo) - 75103","latitude":48.866764167814516,"longitude":2.3615713270327316},"geometry":{"coordinates":[48.866764167814516,2.3615713270327316],"type":"Point"}},{"type":"Feature","properties":{"id":"2050","lineName":"3","name":"Arts-et-Métiers","description":"Vertus (rue des) - 75103","latitude":48.865551863634785,"longitude":2.356108155120312},"geometry":{"coordinates":[48.865551863634785,2.356108155120312],"type":"Point"}},{"type":"Feature","properties":{"id":"1881","lineName":"3","name":"Malesherbes","description":"Villiers (48 avenue de, Musée Henner) - 75117","latitude":48.88253647289218,"longitude":2.311009243005514},"geometry":{"coordinates":[48.88253647289218,2.311009243005514],"type":"Point"}},{"type":"Feature","properties":{"id":"1889","lineName":"3","name":"Havre-Caumartin","description":"Haussmann (boulevard, côté pair et vers la rue Caumartin) - 75109","latitude":48.8734618906704,"longitude":2.3284804844734768},"geometry":{"coordinates":[48.8734618906704,2.3284804844734768],"type":"Point"}},{"type":"Feature","properties":{"id":"2467","lineName":"3","name":"Saint-Lazare","description":"Saint-Lazare (97 rue) - 75108","latitude":48.87568150641968,"longitude":2.325591584819959},"geometry":{"coordinates":[48.87568150641968,2.325591584819959],"type":"Point"}},{"type":"Feature","properties":{"id":"1786","lineName":"3","name":"Péreire","description":"Courcelles (184 rue de, angle avec le105 avenue de Villiers) - 75117","latitude":48.8850310612536,"longitude":2.2971351115061647},"geometry":{"coordinates":[48.8850310612536,2.2971351115061647],"type":"Point"}},{"type":"Feature","properties":{"id":"2285","lineName":"3","name":"Havre-Caumartin","description":"Haussmann (boulevard, côté pair et vers la rue Caumartin) - 75109","latitude":48.8734618906704,"longitude":2.3284804844734768},"geometry":{"coordinates":[48.8734618906704,2.3284804844734768],"type":"Point"}},{"type":"Feature","properties":{"id":"1785","lineName":"3","name":"Père-Lachaise","description":"République (avenue de la) - 75111","latitude":48.862945661667425,"longitude":2.3868924045430804},"geometry":{"coordinates":[48.862945661667425,2.3868924045430804],"type":"Point"}},{"type":"Feature","properties":{"id":"2415","lineName":"3","name":"Porte de Bagnolet","description":"Py (rue de la) - 75120","latitude":48.864336535483645,"longitude":2.4088253760377283},"geometry":{"coordinates":[48.864336535483645,2.4088253760377283],"type":"Point"}},{"type":"Feature","properties":{"id":"2416","lineName":"3","name":"Porte de Champerret","description":"Villiers (143 rue de) - 75117","latitude":48.88573915969202,"longitude":2.2918606206755348},"geometry":{"coordinates":[48.88573915969202,2.2918606206755348],"type":"Point"}},{"type":"Feature","properties":{"id":"1846","lineName":"3","name":"Opéra","description":"Scribe (6 rue, angle avec le 2 rue Auber) - 75109","latitude":48.870720976292084,"longitude":2.3322547435729586},"geometry":{"coordinates":[48.870720976292084,2.3322547435729586],"type":"Point"}},{"type":"Feature","properties":{"id":"2329","lineName":"3","name":"Louise Michel","description":"Louise Michel (30 rue) - 92044","latitude":48.889269622246026,"longitude":2.2880551248039036},"geometry":{"coordinates":[48.889269622246026,2.2880551248039036],"type":"Point"}},{"type":"Feature","properties":{"id":"2510","lineName":"3","name":"Villiers","description":"Courcelles (27 boulevard de) - 75117","latitude":48.88140510041144,"longitude":2.316147050907411},"geometry":{"coordinates":[48.88140510041144,2.316147050907411],"type":"Point"}},{"type":"Feature","properties":{"id":"1802","lineName":"3","name":"Pont de Levallois-Bécon","description":"Baudin (rue, angle avec la rue Anatole France) - 92044","latitude":48.89730990517954,"longitude":2.2807686428069003},"geometry":{"coordinates":[48.89730990517954,2.2807686428069003],"type":"Point"}},{"type":"Feature","properties":{"id":"2514","lineName":"3","name":"Wagram","description":"Villiers (74 avenue de) - 75117","latitude":48.883712476037346,"longitude":2.3055577575143036},"geometry":{"coordinates":[48.883712476037346,2.3055577575143036],"type":"Point"}},